[{"id":1,"properties_name":"Matlock Residences","address":"Matlock Rise","latitude":1.347439719,"longitude":103.863621,"price":3380000,"size":5536,"year_of_built":0},{"id":2,"properties_name":"Mandai Garden - 28 Meng Suan Road","address":"Meng Suan Road","latitude":1.403522609,"longitude":103.8137723,"price":4380000,"size":3922,"year_of_built":2017},{"id":3,"properties_name":"The Quartz","address":"55 Compassvale Bow","latitude":1.381050737,"longitude":103.8938843,"price":1300000,"size":1151,"year_of_built":2010},{"id":4,"properties_name":"204 Tampines Street 21","address":"204 Tampines Street 21","latitude":1.352179847,"longitude":103.9516954,"price":430000,"size":872,"year_of_built":1982},{"id":5,"properties_name":"336D Anchorvale Crescent","address":"336D Anchorvale Crescent","latitude":1.397769025,"longitude":103.8882359,"price":540888,"size":1022,"year_of_built":2014},{"id":6,"properties_name":"120 Simei Street 1","address":"120 Simei Street 1","latitude":1.344715541,"longitude":103.9530201,"price":650000,"size":1378,"year_of_built":1987},{"id":7,"properties_name":"Charming Greenwood Semi Detached, Freehold, Wide Frontage, Near Amenities","address":"Greenwood Avenue","latitude":1.333130558,"longitude":103.8052481,"price":6600000,"size":3000,"year_of_built":0},{"id":8,"properties_name":"Southbank","address":"881 North Bridge Road","latitude":1.306311852,"longitude":103.8643085,"price":1880000,"size":958,"year_of_built":2009},{"id":9,"properties_name":"Principal Garden","address":"91 Prince Charles Crescent","latitude":1.292938994,"longitude":103.8216931,"price":1500000,"size":807,"year_of_built":2019},{"id":10,"properties_name":"116B Jalan Tenteram","address":"116B Jalan Tenteram","latitude":1.32754908,"longitude":103.8608074,"price":749000,"size":1001,"year_of_built":2016},{"id":11,"properties_name":"Sunhaven","address":"781 Upper Changi Road East","latitude":1.348139387,"longitude":103.9620849,"price":1398000,"size":1291,"year_of_built":2003},{"id":12,"properties_name":"11 1 LiveTour","address":"Upper Changi Road North","latitude":1.356327332,"longitude":103.9689387,"price":4400000,"size":3953,"year_of_built":0},{"id":13,"properties_name":"Euhabitat","address":"222 Jalan Eunos","latitude":1.327251959,"longitude":103.9068263,"price":688000,"size":528,"year_of_built":2015},{"id":14,"properties_name":"Mera Gardens","address":"62 Almond Crescent","latitude":1.372067466,"longitude":103.773792,"price":1980000,"size":2800,"year_of_built":1998},{"id":15,"properties_name":"The Jovell","address":"13 Flora Drive","latitude":1.358004544,"longitude":103.9657254,"price":1050000,"size":904,"year_of_built":0},{"id":16,"properties_name":"The Jovell","address":"13 Flora Drive","latitude":1.358004544,"longitude":103.9657254,"price":820000,"size":645,"year_of_built":0},{"id":17,"properties_name":"Hyll on Holland","address":"93 Holland Road","latitude":1.310259641,"longitude":103.8023758,"price":1810700,"size":700,"year_of_built":0},{"id":18,"properties_name":"43A West Coast Road","address":"43A West coast road","latitude":1.29521191,"longitude":103.7664116,"price":11980000,"size":4600,"year_of_built":0},{"id":19,"properties_name":"Parc Clematis","address":"2 Jalan Lempeng","latitude":1.317106451,"longitude":103.7589473,"price":2016000,"size":1238,"year_of_built":0},{"id":20,"properties_name":"The Topiary","address":"19 Fernvale Lane","latitude":1.387998064,"longitude":103.8721261,"price":950000,"size":904,"year_of_built":2016},{"id":21,"properties_name":"61A Strathmore Avenue","address":"61A Strathmore Avenue","latitude":1.293860989,"longitude":103.8115839,"price":848000,"size":1033,"year_of_built":2010},{"id":22,"properties_name":"439B Sengkang West Avenue","address":"439B Sengkang West Avenue","latitude":1.391976539,"longitude":103.8783098,"price":470000,"size":1012,"year_of_built":2009},{"id":23,"properties_name":"The Hillier","address":"6 Hillview Rise","latitude":1.363033894,"longitude":103.7641285,"price":860000,"size":560,"year_of_built":2016},{"id":24,"properties_name":"The Hillier","address":"2 Hillview Rise","latitude":1.363932031,"longitude":103.7645836,"price":830000,"size":624,"year_of_built":2016},{"id":25,"properties_name":"101A SUNSET WAY","address":"Sunset Way","latitude":1.327703233,"longitude":103.7647963,"price":9500000,"size":4000,"year_of_built":0},{"id":26,"properties_name":"Mayfair Gardens","address":"8 Rifle Range Road","latitude":1.338222486,"longitude":103.781376,"price":2148000,"size":1109,"year_of_built":0},{"id":27,"properties_name":"Leedon Green","address":"26 Leedon Heights","latitude":1.313566141,"longitude":103.803218,"price":1428000,"size":538,"year_of_built":0},{"id":28,"properties_name":"Imperial Heights","address":"16 Ipoh Lane","latitude":1.311455375,"longitude":103.8951696,"price":835000,"size":581,"year_of_built":2009},{"id":29,"properties_name":"Mayfair Gardens","address":"8 Rifle Range Road","latitude":1.338222486,"longitude":103.781376,"price":2484000,"size":1216,"year_of_built":0},{"id":30,"properties_name":"Wilshire Residences","address":"30 Farrer Road","latitude":1.313061613,"longitude":103.8046476,"price":1550000,"size":646,"year_of_built":0},{"id":31,"properties_name":"Juniper Hill","address":"39 Ewe Boon Road","latitude":1.316482034,"longitude":103.8298972,"price":1488000,"size":592,"year_of_built":0},{"id":32,"properties_name":"30 Telok Blangah Rise","address":"30 Telok Blangah Rise","latitude":1.272985283,"longitude":103.820252,"price":330000,"size":635,"year_of_built":1975},{"id":33,"properties_name":"Meyer Mansion","address":"79 Meyer Road","latitude":1.296472195,"longitude":103.8910346,"price":2678000,"size":1109,"year_of_built":0},{"id":34,"properties_name":"4B Boon Tiong Road","address":"4B Boon Tiong Road","latitude":1.286588783,"longitude":103.8319503,"price":845000,"size":1076,"year_of_built":2003},{"id":35,"properties_name":"Urban Treasures","address":"205 Jalan Eunos","latitude":1.329367202,"longitude":103.9057913,"price":2200000,"size":1270,"year_of_built":0},{"id":36,"properties_name":"Urban Treasures","address":"205 Jalan Eunos","latitude":1.329367202,"longitude":103.9057913,"price":1558000,"size":883,"year_of_built":0},{"id":37,"properties_name":"Midtown Modern","address":"16 Tan Quee Lan Street","latitude":1.298505223,"longitude":103.8570884,"price":3582000,"size":1432,"year_of_built":0},{"id":38,"properties_name":"Midtown Modern","address":"16 Tan Quee Lan Street","latitude":1.298505223,"longitude":103.8570884,"price":2198000,"size":904,"year_of_built":0},{"id":39,"properties_name":"Meyer Mansion","address":"79 Meyer Road","latitude":1.296472195,"longitude":103.8910346,"price":4288000,"size":1722,"year_of_built":0},{"id":40,"properties_name":"Meyer Mansion","address":"79 Meyer Road","latitude":1.296472195,"longitude":103.8910346,"price":1786000,"size":689,"year_of_built":0},{"id":41,"properties_name":"Austville Residences","address":"11 Sengkang East Avenue","latitude":1.380965756,"longitude":103.9008203,"price":1080000,"size":1109,"year_of_built":2014},{"id":42,"properties_name":"Eco Sanctuary","address":"63 Chestnut Avenue","latitude":1.370836586,"longitude":103.7761764,"price":920000,"size":700,"year_of_built":2016},{"id":43,"properties_name":"310C Punggol Walk","address":"310C Punggol Walk","latitude":1.409710961,"longitude":103.8998984,"price":690000,"size":1205,"year_of_built":2015},{"id":44,"properties_name":"268B Compassvale Link","address":"268B Compassvale Link","latitude":1.384455569,"longitude":103.8962528,"price":515000,"size":968,"year_of_built":2004},{"id":45,"properties_name":"Treasure Mansions","address":"15 Rosyth Avenue","latitude":1.361558583,"longitude":103.8776292,"price":890000,"size":754,"year_of_built":2006},{"id":46,"properties_name":"641A Punggol Drive","address":"641A Punggol Drive","latitude":1.398554823,"longitude":103.9170016,"price":515000,"size":1194,"year_of_built":2003},{"id":47,"properties_name":"665B Punggol Drive","address":"665B Punggol Drive","latitude":1.402040572,"longitude":103.9141411,"price":598000,"size":1216,"year_of_built":2015},{"id":48,"properties_name":"Serangoon Garden Estate","address":"Raglan Grove","latitude":1.36445992,"longitude":103.8691356,"price":6000000,"size":6000,"year_of_built":0},{"id":49,"properties_name":"620 Hougang Avenue 8","address":"620 Hougang Avenue 8","latitude":1.370144007,"longitude":103.8839681,"price":305000,"size":645,"year_of_built":1985},{"id":50,"properties_name":"Riversails","address":"4 Upper Serangoon Crescent","latitude":1.378033392,"longitude":103.9024815,"price":2450000,"size":2400,"year_of_built":2016},{"id":51,"properties_name":"FORETT@BUKIT TIMAH","address":"32 Toh Tuck Road","latitude":1.339908539,"longitude":103.7675232,"price":1690000,"size":947,"year_of_built":0},{"id":52,"properties_name":"Midwood","address":"8 Hillview Rise","latitude":1.362862088,"longitude":103.7634339,"price":1900000,"size":1249,"year_of_built":0},{"id":53,"properties_name":"Normanton Park","address":"45 Normanton Park","latitude":1.287349679,"longitude":103.7930563,"price":1888888,"size":1195,"year_of_built":0},{"id":54,"properties_name":"Midwood","address":"8 Hillview Rise","latitude":1.362862088,"longitude":103.7634339,"price":1200000,"size":775,"year_of_built":0},{"id":55,"properties_name":"Commonwealth Towers","address":"232 Commonwealth Avenue","latitude":1.295463429,"longitude":103.8065158,"price":1528000,"size":797,"year_of_built":2017},{"id":56,"properties_name":"Cavan Suites","address":"11 Cavan Road","latitude":1.310998559,"longitude":103.8611552,"price":625000,"size":344,"year_of_built":2013},{"id":57,"properties_name":"278A Compassvale Bow","address":"278A Compassvale Bow","latitude":1.381880822,"longitude":103.8902955,"price":728000,"size":1216,"year_of_built":2016},{"id":58,"properties_name":"Riversails","address":"20 Upper Serangoon Crescent","latitude":1.378852702,"longitude":103.9024802,"price":1108888,"size":947,"year_of_built":2016},{"id":59,"properties_name":"Watercolours","address":"35 Pasir Ris Link","latitude":1.376711144,"longitude":103.9599263,"price":928000,"size":958,"year_of_built":2016},{"id":60,"properties_name":"Daintree Residence","address":"11A Toh Tuck Road","latitude":1.340000986,"longitude":103.7708699,"price":2061400,"size":1249,"year_of_built":0},{"id":61,"properties_name":"The Clearwater","address":"12 Bedok Reservoir View","latitude":1.337400939,"longitude":103.9346985,"price":1390000,"size":1454,"year_of_built":2002},{"id":62,"properties_name":"Robin Residences","address":"3 Robin Drive","latitude":1.318783631,"longitude":103.8282067,"price":1450000,"size":538,"year_of_built":2016},{"id":63,"properties_name":"Merryn road","address":"Merryn road","latitude":1.327524838,"longitude":103.8220722,"price":12800000,"size":8711,"year_of_built":0},{"id":64,"properties_name":"??????D19?????? Serangoon Garden Estate","address":"Burghley drive","latitude":1.358213683,"longitude":103.8627834,"price":5800000,"size":4820,"year_of_built":0},{"id":65,"properties_name":"De Lente","address":"Farrer Road","latitude":1.317439152,"longitude":103.8073792,"price":1300000,"size":742,"year_of_built":2004},{"id":66,"properties_name":"Symphony Suites","address":"21 Yishun Close","latitude":1.435759355,"longitude":103.844351,"price":830000,"size":689,"year_of_built":0},{"id":67,"properties_name":"217B Sumang Walk","address":"217B Sumang Walk","latitude":1.402401614,"longitude":103.894935,"price":668000,"size":1206,"year_of_built":2016},{"id":68,"properties_name":"Kingsford Waterbay","address":"68 Upper Serangoon View","latitude":1.373777671,"longitude":103.9029702,"price":888000,"size":689,"year_of_built":2018},{"id":69,"properties_name":"6 Marine Terrace","address":"6 Marine Terrace","latitude":1.303785442,"longitude":103.9164953,"price":388000,"size":700,"year_of_built":1974},{"id":70,"properties_name":"Wilshire Residences","address":"30 Farrer Road","latitude":1.313061613,"longitude":103.8046476,"price":1549750,"size":646,"year_of_built":0},{"id":71,"properties_name":"Top of the Hill Modern Bungalow","address":"Siglap Bank","latitude":1.31803048,"longitude":103.9206587,"price":9800000,"size":8462,"year_of_built":0},{"id":72,"properties_name":"Normanton Park","address":"45 Normanton Park","latitude":1.287349679,"longitude":103.7930563,"price":1144712,"size":646,"year_of_built":0},{"id":73,"properties_name":"The Topiary","address":"11 Fernvale Lane","latitude":1.388871431,"longitude":103.8720172,"price":965000,"size":915,"year_of_built":2016},{"id":74,"properties_name":"642D Punggol Drive","address":"642D Punggol Drive","latitude":1.39879751,"longitude":103.9158457,"price":510000,"size":1205,"year_of_built":2002},{"id":75,"properties_name":"77A Redhill Road","address":"77A Redhill Road","latitude":1.288381067,"longitude":103.8173911,"price":785000,"size":968,"year_of_built":2004},{"id":76,"properties_name":"Residence Twenty-Two","address":"246 Telok Kurau Road","latitude":1.31101225,"longitude":103.9110422,"price":2124969,"size":1195,"year_of_built":0},{"id":77,"properties_name":"Opera estate","address":"Jalan bangsawan","latitude":1.321734212,"longitude":103.9240116,"price":3550000,"size":2300,"year_of_built":0},{"id":78,"properties_name":"Alex Residences","address":"Alexandra View","latitude":1.290300223,"longitude":103.8175609,"price":1788888,"size":904,"year_of_built":2017},{"id":79,"properties_name":"Affinity At Serangoon","address":"Serangoon North Avenue 1","latitude":1.369950992,"longitude":103.8723123,"price":1190000,"size":861,"year_of_built":0},{"id":80,"properties_name":"Riverfront Residences","address":"45 Hougang Avenue 7","latitude":1.37088909,"longitude":103.8996452,"price":1100000,"size":915,"year_of_built":0},{"id":81,"properties_name":"Avenue South Residence","address":"5 Silat Avenue","latitude":1.276048396,"longitude":103.8293638,"price":1779999,"size":947,"year_of_built":0},{"id":82,"properties_name":"Midtown Modern","address":"16 Tan Quee Lan Street","latitude":1.298505223,"longitude":103.8570884,"price":2400000,"size":904,"year_of_built":0},{"id":83,"properties_name":"Palm Isles","address":"32 Flora Drive","latitude":1.356888655,"longitude":103.9641941,"price":938000,"size":990,"year_of_built":2015},{"id":84,"properties_name":"Pasir Ris One","address":"530 Pasir Ris Dr 1","latitude":1.371238357,"longitude":103.9494298,"price":830000,"size":1130,"year_of_built":2015},{"id":85,"properties_name":"3. 5sty Semid-7min walk to mrt.","address":"Jalan Krian","latitude":1.324212547,"longitude":103.9160156,"price":4280000,"size":4500,"year_of_built":0},{"id":86,"properties_name":"7 Boon Keng Road","address":"7 Boon Keng Road","latitude":1.316789225,"longitude":103.8617819,"price":1150000,"size":1151,"year_of_built":2011},{"id":87,"properties_name":"The Wisteria","address":"590 Yishun Ring Road","latitude":1.418447036,"longitude":103.8411124,"price":960000,"size":893,"year_of_built":2018},{"id":88,"properties_name":"3 Saint George's Road","address":"3 Saint George's Road","latitude":1.322587352,"longitude":103.8611073,"price":325000,"size":635,"year_of_built":1975},{"id":89,"properties_name":"Duchess Avenue","address":"Duchess Avenue","latitude":1.323556803,"longitude":103.8028899,"price":17200000,"size":8000,"year_of_built":2016},{"id":90,"properties_name":"Symphony Suites","address":"3 Yishun Close","latitude":1.434768994,"longitude":103.844173,"price":899999,"size":786,"year_of_built":0},{"id":91,"properties_name":"88 Dawson Road","address":"88 Dawson Road","latitude":1.29579395,"longitude":103.8092648,"price":848000,"size":936,"year_of_built":2015},{"id":92,"properties_name":"Laverne's Loft","address":"66 Lorong L Telok Kurau","latitude":1.311269132,"longitude":103.9102779,"price":700000,"size":441,"year_of_built":2014},{"id":93,"properties_name":"CHANGI RISE CONDOMINIUM","address":"8 Simei Rise","latitude":1.347873636,"longitude":103.9595327,"price":1360000,"size":1496,"year_of_built":2004},{"id":94,"properties_name":"The Topiary","address":"11 Fernvale Lane","latitude":1.388871431,"longitude":103.8720172,"price":1380000,"size":1259,"year_of_built":2016},{"id":95,"properties_name":"Canary Park","address":"37 Jalan Simpang Bedok","latitude":1.33357983,"longitude":103.9453408,"price":3360000,"size":3200,"year_of_built":1992},{"id":96,"properties_name":"Kingsford Waterbay","address":"74 Upper Serangoon View","latitude":1.374720657,"longitude":103.9037317,"price":1100000,"size":850,"year_of_built":2018},{"id":97,"properties_name":"111 Emerald Hill","address":"111 Emerald Hill","latitude":1.305041547,"longitude":103.8391513,"price":4590000,"size":1970,"year_of_built":2012},{"id":98,"properties_name":"The Skywoods","address":"1 Dairy Farm Heights","latitude":1.365117414,"longitude":103.7718732,"price":1450000,"size":1066,"year_of_built":2017},{"id":99,"properties_name":"Chestervale","address":"39 Bangkit Road","latitude":1.379025023,"longitude":103.7744106,"price":998000,"size":1410,"year_of_built":1997},{"id":100,"properties_name":"Urban Vista","address":"2 Tanah Merah Kechil Link","latitude":1.32766677,"longitude":103.9447459,"price":640000,"size":430,"year_of_built":2016},{"id":101,"properties_name":"Urban Vista","address":"2 Tanah Merah Kechil Link","latitude":1.32766677,"longitude":103.9447459,"price":849000,"size":549,"year_of_built":2016},{"id":102,"properties_name":"455 Sin Ming Avenue","address":"455 Sin Ming Avenue","latitude":1.358728426,"longitude":103.8306428,"price":1050000,"size":2012,"year_of_built":1988},{"id":103,"properties_name":"Clavon","address":"4 Clementi Avenue 1","latitude":1.308912438,"longitude":103.7670551,"price":2330960,"size":1582,"year_of_built":0},{"id":104,"properties_name":"*D10*Eminence Landed*Henry Park Primary* Modern 2. 5 Storey Semi-D @ Luxurious Holland Grove Park","address":"Holland Grove","latitude":1.313126069,"longitude":103.7800153,"price":8280000,"size":7000,"year_of_built":0},{"id":105,"properties_name":"Citylights","address":"80 Jellicoe Road","latitude":1.308275812,"longitude":103.8631174,"price":1880000,"size":1421,"year_of_built":2007},{"id":106,"properties_name":"Euhabitat","address":"202 Jalan Eunos","latitude":1.327763561,"longitude":103.9079615,"price":1198000,"size":1012,"year_of_built":2016},{"id":107,"properties_name":"West Coast Landed","address":"West Coast Green","latitude":1.31563141,"longitude":103.7562699,"price":4199000,"size":2500,"year_of_built":0},{"id":108,"properties_name":"118 Pasir Ris Street 11","address":"118 Pasir Ris Street 11","latitude":1.3671492,"longitude":103.9548053,"price":500000,"size":1130,"year_of_built":1988},{"id":109,"properties_name":"1953","address":"1 Tessensohn Road","latitude":1.316477524,"longitude":103.8577508,"price":2157000,"size":1120,"year_of_built":0},{"id":110,"properties_name":"Grandeur Park Residences","address":"3 Bedok South Avenue 3","latitude":1.326092355,"longitude":103.9452697,"price":908000,"size":560,"year_of_built":0},{"id":111,"properties_name":"The Woodleigh Residences","address":"13 Bidadari Park Drive","latitude":1.338214403,"longitude":103.87209,"price":1722000,"size":850,"year_of_built":0},{"id":112,"properties_name":"The Woodleigh Residences","address":"13 Bidadari Park Drive","latitude":1.338214403,"longitude":103.87209,"price":2542000,"size":1119,"year_of_built":0},{"id":113,"properties_name":"Serene Park","address":"Tamarind Road","latitude":1.389694148,"longitude":103.8601944,"price":4498000,"size":3225,"year_of_built":0},{"id":114,"properties_name":"Penrose","address":"20 Sims Drive","latitude":1.319412782,"longitude":103.879496,"price":2113960,"size":1389,"year_of_built":0},{"id":115,"properties_name":"One-North Residences","address":"9 One-North Gateway","latitude":1.301733345,"longitude":103.7900009,"price":2300000,"size":1324,"year_of_built":2009},{"id":116,"properties_name":"187B Rivervale Drive","address":"187B Rivervale Drive","latitude":1.394297911,"longitude":103.9058476,"price":428000,"size":979,"year_of_built":1999},{"id":117,"properties_name":"4 Jalan Bukit Ho Swee","address":"4 Jalan Bukit Ho Swee","latitude":1.287422399,"longitude":103.8312389,"price":340000,"size":635,"year_of_built":1962},{"id":118,"properties_name":"19 Dover Crescent","address":"19 Dover Crescent","latitude":1.307835871,"longitude":103.7836359,"price":688000,"size":990,"year_of_built":2002},{"id":119,"properties_name":"D'Leedon","address":"1 Leedon Heights","latitude":1.316090219,"longitude":103.8023,"price":8800000,"size":5000,"year_of_built":2014},{"id":120,"properties_name":"The Interlace","address":"200 200 Depot Road","latitude":1.282217696,"longitude":103.803662,"price":1200000,"size":807,"year_of_built":2013},{"id":121,"properties_name":"Mon Jervois","address":"41 Jervois Road","latitude":1.293652271,"longitude":103.8219972,"price":2850000,"size":1389,"year_of_built":2016},{"id":122,"properties_name":"172B Edgedale Plains","address":"172B Edgedale Plains","latitude":1.395724021,"longitude":103.9118054,"price":499888,"size":1184,"year_of_built":2003},{"id":123,"properties_name":"929 Tampines Street 91","address":"929 Tampines Street 91","latitude":1.346391724,"longitude":103.939614,"price":480000,"size":1119,"year_of_built":1984},{"id":124,"properties_name":"807A Chai Chee Road","address":"807A Chai Chee Road","latitude":1.327073879,"longitude":103.9231882,"price":640000,"size":1001,"year_of_built":2015},{"id":125,"properties_name":"The Nautical","address":"97 Jalan Sendudok","latitude":1.442817008,"longitude":103.8247377,"price":820000,"size":764,"year_of_built":2016},{"id":126,"properties_name":"Bungalow land-9470sf","address":"Lorong K telok kurau","latitude":1.313081437,"longitude":103.911771,"price":10800000,"size":3000,"year_of_built":0},{"id":127,"properties_name":"De Centurion","address":"6A Tanjong Rhu Road","latitude":1.29881006,"longitude":103.8843503,"price":1780000,"size":1044,"year_of_built":2010},{"id":128,"properties_name":"Clavon","address":"4 Clementi Avenue 1","latitude":1.308912438,"longitude":103.7670551,"price":1944000,"size":1281,"year_of_built":0},{"id":129,"properties_name":"Queens Peak","address":"1 Dundee Road","latitude":1.294746118,"longitude":103.8068303,"price":1899000,"size":947,"year_of_built":0},{"id":130,"properties_name":"Lengkong Satu","address":"Lengkong Satu","latitude":1.3266912,"longitude":103.9129732,"price":4000000,"size":3000,"year_of_built":0},{"id":131,"properties_name":"78 Guan Chuan Street","address":"78 Guan Chuan Street","latitude":1.283326114,"longitude":103.8310145,"price":1100000,"size":925,"year_of_built":1937},{"id":132,"properties_name":"250 Hougang Avenue 3","address":"250 Hougang Avenue 3","latitude":1.35957926,"longitude":103.8913049,"price":285000,"size":721,"year_of_built":1983},{"id":133,"properties_name":"71 Bedok South Road","address":"71 Bedok South Road","latitude":1.320416017,"longitude":103.9427323,"price":328000,"size":721,"year_of_built":1977},{"id":134,"properties_name":"489A Choa Chu Kang Avenue 5","address":"489A Choa Chu Kang Avenue 5","latitude":1.375600948,"longitude":103.74036,"price":580000,"size":1216,"year_of_built":2014},{"id":135,"properties_name":"The Lakefront Residences","address":"42 Lakeside Drive","latitude":1.3433524,"longitude":103.7193036,"price":1550000,"size":1205,"year_of_built":2014},{"id":136,"properties_name":"110 Teck Whye Lane","address":"110 Teck Whye Lane","latitude":1.378236953,"longitude":103.7522083,"price":388000,"size":1109,"year_of_built":1987},{"id":137,"properties_name":"Archipelago","address":"533 Bedok Reservoir Road","latitude":1.338558134,"longitude":103.9209194,"price":2600000,"size":2541,"year_of_built":2015},{"id":138,"properties_name":"Pasir Ris Beach Park","address":"74 Pasir Ris Terrace","latitude":1.382600119,"longitude":103.9434251,"price":4280000,"size":3100,"year_of_built":1976},{"id":139,"properties_name":"The Wisteria","address":"590 Yishun Ring Road","latitude":1.418447036,"longitude":103.8411124,"price":1480000,"size":1173,"year_of_built":2018},{"id":140,"properties_name":"Kingsford Waterbay","address":"Upper Serangoon View","latitude":1.377433378,"longitude":103.9037136,"price":830000,"size":689,"year_of_built":2018},{"id":141,"properties_name":"Fulcrum","address":"33 Fort Road","latitude":1.298688314,"longitude":103.8848534,"price":950000,"size":474,"year_of_built":2016},{"id":142,"properties_name":"The Gale","address":"78 FLORA ROAD","latitude":1.358085926,"longitude":103.9673208,"price":960000,"size":915,"year_of_built":0},{"id":143,"properties_name":"5 LiveTour","address":"17A Lim Tai See","latitude":1.322802353,"longitude":103.7923746,"price":5700000,"size":2800,"year_of_built":0},{"id":144,"properties_name":"Kingsford Hillview Peak","address":"105 Hillview Rise","latitude":1.364843897,"longitude":103.7637276,"price":1150000,"size":850,"year_of_built":2016},{"id":145,"properties_name":"River Isles","address":"Punggol Central","latitude":1.400221793,"longitude":103.9092521,"price":1280888,"size":1141,"year_of_built":2016},{"id":146,"properties_name":"Paya Lebar Residences","address":"27 Paya Lebar Road","latitude":1.317521438,"longitude":103.8914757,"price":1880000,"size":1291,"year_of_built":2003},{"id":147,"properties_name":"1 Canberra","address":"17 Canberra Drive","latitude":1.437873277,"longitude":103.8294748,"price":1055000,"size":1055,"year_of_built":2015},{"id":148,"properties_name":"Nanyang Park Semi D. 5 mins walk to Future MRT","address":"Jalan Limbok","latitude":1.364810619,"longitude":103.8749071,"price":4800000,"size":6500,"year_of_built":0},{"id":149,"properties_name":"THE ESTUARY","address":"95 Yishun Avenue 1","latitude":1.410648962,"longitude":103.8317352,"price":970000,"size":1034,"year_of_built":2013},{"id":150,"properties_name":"Symphony Suites","address":"21 Yishun Close","latitude":1.435759355,"longitude":103.844351,"price":799999,"size":689,"year_of_built":0},{"id":151,"properties_name":"The Crest","address":"113 Prince Charles Crescent","latitude":1.293117406,"longitude":103.8205055,"price":3460000,"size":1873,"year_of_built":2017},{"id":152,"properties_name":"Kallang Riverside","address":"51 Kampong Bugis","latitude":1.307104742,"longitude":103.8670878,"price":2550000,"size":1001,"year_of_built":2019},{"id":153,"properties_name":"* Brand New Bungalow@Phillip Avenue *","address":"Phillip Avenue","latitude":1.363926067,"longitude":103.8759105,"price":8200000,"size":7300,"year_of_built":2020},{"id":154,"properties_name":"Spottiswoode Residences","address":"48 Spottiswoode Park Road","latitude":1.275271152,"longitude":103.8368322,"price":1380000,"size":624,"year_of_built":2014},{"id":155,"properties_name":"Citylights","address":"88 Jellicoe Road","latitude":1.309215476,"longitude":103.8629159,"price":1188888,"size":678,"year_of_built":2007},{"id":156,"properties_name":"Brand New Hilltop Semi-detached @ Burghley Drive","address":"Burghley Drive","latitude":1.358213683,"longitude":103.8627834,"price":5800000,"size":4800,"year_of_built":2020},{"id":157,"properties_name":"Auspicious Brand new semi-detached@Alnwick Road","address":"Alnwick Road","latitude":1.364692353,"longitude":103.8682399,"price":7750000,"size":7500,"year_of_built":2020},{"id":158,"properties_name":"Hedges Park Condominium","address":"83 Flora Drive","latitude":1.355161208,"longitude":103.9678446,"price":900000,"size":969,"year_of_built":2015},{"id":159,"properties_name":"Shelford Suites","address":"16 Shelford Road","latitude":1.326601354,"longitude":103.8126549,"price":2667700,"size":1442,"year_of_built":2011},{"id":160,"properties_name":"Adam Park Condominium","address":"27 Adam Road","latitude":1.327843271,"longitude":103.8133143,"price":2098000,"size":1259,"year_of_built":2004},{"id":161,"properties_name":"Melville Park","address":"12 Simei Street 1","latitude":1.348086612,"longitude":103.958789,"price":950000,"size":1313,"year_of_built":1996},{"id":162,"properties_name":"Parc Komo","address":"965 Upper Changi Road North","latitude":1.360722133,"longitude":103.9696183,"price":988000,"size":657,"year_of_built":0},{"id":163,"properties_name":"Stars of Kovan","address":"986 Upper Serangoon Road","latitude":1.361606529,"longitude":103.8874628,"price":1258000,"size":742,"year_of_built":0},{"id":164,"properties_name":"Grandeur Park Residences","address":"1 Bedok South Avenue 3","latitude":1.325821355,"longitude":103.9449192,"price":1450000,"size":883,"year_of_built":0},{"id":165,"properties_name":"Eng Kong Green","address":"55 Eng Kong Terrace","latitude":1.336396851,"longitude":103.7694825,"price":1280000,"size":840,"year_of_built":1999},{"id":166,"properties_name":"Hillview Park","address":"19A Hillview Avenue","latitude":1.364701961,"longitude":103.7655941,"price":1690000,"size":1432,"year_of_built":1995},{"id":167,"properties_name":"La Mariposa","address":"35 Mangis Road","latitude":1.312707634,"longitude":103.9046712,"price":2269000,"size":1335,"year_of_built":0},{"id":168,"properties_name":"The Crest","address":"101 Prince Charles Crescent","latitude":1.29269479,"longitude":103.8204115,"price":2880000,"size":1378,"year_of_built":2017},{"id":169,"properties_name":"The Seawind","address":"72 Lorong M Telok Kurau","latitude":1.310850917,"longitude":103.9140567,"price":1186407,"size":635,"year_of_built":2015},{"id":170,"properties_name":"??????Superb View | Gem Of Mt Sinai??????","address":"Mount Sinai","latitude":1.316121344,"longitude":103.781762,"price":7000000,"size":6000,"year_of_built":0},{"id":171,"properties_name":"Brand New 6 Ensuite Lengkok Merah","address":"Lengkok Merah","latitude":1.285751537,"longitude":103.8132084,"price":13200000,"size":9160,"year_of_built":0},{"id":172,"properties_name":"Midwood","address":"8 Hillview Rise","latitude":1.362862088,"longitude":103.7634339,"price":1017000,"size":635,"year_of_built":0},{"id":173,"properties_name":"The Ritz-Carlton Residences","address":"65 Cairnhill Road","latitude":1.308031263,"longitude":103.8361831,"price":12000000,"size":2831,"year_of_built":2013},{"id":174,"properties_name":"Palm Dr, Singapore","address":"Palm","latitude":1.416840108,"longitude":103.8411126,"price":7800000,"size":6000,"year_of_built":0},{"id":175,"properties_name":"314A Punggol Way","address":"314A Punggol Way","latitude":1.408261878,"longitude":103.8980179,"price":780000,"size":1216,"year_of_built":2016},{"id":176,"properties_name":"475A Upper Serangoon Crescent","address":"475A Upper Serangoon Crescent","latitude":1.376298403,"longitude":103.9002208,"price":790000,"size":1205,"year_of_built":2014},{"id":177,"properties_name":"Thomson Impressions","address":"20 Lorong Puntong","latitude":1.36002617,"longitude":103.8311117,"price":800000,"size":463,"year_of_built":2019},{"id":178,"properties_name":"Oxley Edge","address":"308 River Valley Road","latitude":1.295631027,"longitude":103.8416151,"price":900000,"size":420,"year_of_built":2016},{"id":179,"properties_name":"Avenue South Residence","address":"1 Silat Avenue","latitude":1.276390119,"longitude":103.8302713,"price":1840000,"size":947,"year_of_built":0},{"id":180,"properties_name":"Cairnhill Plaza","address":"53 Cairnhill Road","latitude":1.306162225,"longitude":103.8369945,"price":5480000,"size":2820,"year_of_built":1978},{"id":181,"properties_name":"Katong Regency","address":"13 Tanjong Katong Road","latitude":1.315031771,"longitude":103.8947604,"price":1100000,"size":560,"year_of_built":2015},{"id":182,"properties_name":"WATERSCAPE AT CAVENAGH","address":"65 Cavenagh Road","latitude":1.303955778,"longitude":103.840804,"price":3500000,"size":1389,"year_of_built":2014},{"id":183,"properties_name":"72 Bedok South Avenue 3","address":"72 Bedok South Avenue 3","latitude":1.320366592,"longitude":103.9436679,"price":568000,"size":1323,"year_of_built":1977},{"id":184,"properties_name":"Sengkang Grand Residences","address":"78 Compassvale Bow","latitude":1.383451462,"longitude":103.8919783,"price":995000,"size":678,"year_of_built":0},{"id":185,"properties_name":"310C Punggol Walk","address":"310C Punggol Walk","latitude":1.409710961,"longitude":103.8998984,"price":620000,"size":1205,"year_of_built":2015},{"id":186,"properties_name":"676C Punggol Drive","address":"676C Punggol Drive","latitude":1.405331433,"longitude":103.9105868,"price":690000,"size":1216,"year_of_built":2015},{"id":187,"properties_name":"312C Sumang Link","address":"312C Sumang Link","latitude":1.410907282,"longitude":103.9011861,"price":550000,"size":990,"year_of_built":2014},{"id":188,"properties_name":"FORETT@BUKIT TIMAH","address":"32 Toh Tuck Road","latitude":1.339908539,"longitude":103.7675232,"price":995000,"size":570,"year_of_built":0},{"id":189,"properties_name":"Wilshire Residences","address":"30 Farrer Road","latitude":1.313061613,"longitude":103.8046476,"price":1500000,"size":646,"year_of_built":0},{"id":190,"properties_name":"Parkwood Residences","address":"208 Yio Chu Kang Road","latitude":1.366526614,"longitude":103.8758283,"price":1463600,"size":1033,"year_of_built":0},{"id":191,"properties_name":"Parkwood Residences","address":"208 Yio Chu Kang Road","latitude":1.366526614,"longitude":103.8758283,"price":1299000,"size":861,"year_of_built":0},{"id":192,"properties_name":"Signature At Yishun","address":"21 Yishun Street 51","latitude":1.416969524,"longitude":103.844552,"price":1088000,"size":1098,"year_of_built":2018},{"id":193,"properties_name":"Cashew Estate","address":"2 Cashew Terrace","latitude":1.370622866,"longitude":103.7656391,"price":5000000,"size":200,"year_of_built":2008},{"id":194,"properties_name":"Grandeur Park Residences","address":"1 Bedok South Avenue 3","latitude":1.325821355,"longitude":103.9449192,"price":858000,"size":452,"year_of_built":0},{"id":195,"properties_name":"Echelon","address":"9 Alexandra View","latitude":1.290606945,"longitude":103.8178669,"price":999999,"size":452,"year_of_built":2016},{"id":196,"properties_name":"Skies Miltonia","address":"35 Miltonia Close","latitude":1.418350663,"longitude":103.8472745,"price":650000,"size":484,"year_of_built":2016},{"id":197,"properties_name":"126B Edgedale Plains","address":"126B Edgedale Plains","latitude":1.394548891,"longitude":103.9111062,"price":490000,"size":1184,"year_of_built":2001},{"id":198,"properties_name":"315A Anchorvale Road","address":"315A Anchorvale Road","latitude":1.39194188,"longitude":103.8890185,"price":575000,"size":1345,"year_of_built":2001},{"id":199,"properties_name":"Peirce Villas","address":"18 Peirce Road","latitude":1.302948434,"longitude":103.8074463,"price":38000000,"size":7200,"year_of_built":0},{"id":200,"properties_name":"The Topiary","address":"13 Fernvale Lane","latitude":1.388815679,"longitude":103.8723919,"price":1000000,"size":915,"year_of_built":2016},{"id":201,"properties_name":"Parvis","address":"18 Holland Hill","latitude":1.309851999,"longitude":103.7998896,"price":4250000,"size":2325,"year_of_built":2012},{"id":202,"properties_name":"verdale","address":"De souza avenue de souza ave","latitude":1.345436219,"longitude":103.7690457,"price":1668500,"size":1001,"year_of_built":0},{"id":203,"properties_name":"Estella Gardens","address":"27 Flora Road","latitude":1.359564041,"longitude":103.9675518,"price":960000,"size":1141,"year_of_built":1999},{"id":204,"properties_name":"Echelon","address":"9 Alexandra View","latitude":1.290606945,"longitude":103.8178669,"price":1490000,"size":732,"year_of_built":2016},{"id":205,"properties_name":"Vue 8 Residence","address":"Pasir Ris Heights","latitude":1.382377149,"longitude":103.9421749,"price":2699888,"size":2690,"year_of_built":2017},{"id":206,"properties_name":"The Rivervale","address":"1 Rivervale Link","latitude":1.380010839,"longitude":103.8987397,"price":970000,"size":1292,"year_of_built":2001},{"id":207,"properties_name":"Kingsford Waterbay","address":"60 Upper Serangoon View","latitude":1.37327043,"longitude":103.9025806,"price":980000,"size":775,"year_of_built":2018},{"id":208,"properties_name":"8 Kim Tian Place","address":"8 Kim Tian Place","latitude":1.283029656,"longitude":103.8272367,"price":918000,"size":1411,"year_of_built":1983},{"id":209,"properties_name":"Casa Al Mare","address":"75 Jalan Loyang Besar","latitude":1.377856296,"longitude":103.9570896,"price":1128000,"size":731,"year_of_built":0},{"id":210,"properties_name":"One Meyer","address":"1 Meyer Place","latitude":1.298240182,"longitude":103.8861636,"price":1547000,"size":614,"year_of_built":0},{"id":211,"properties_name":"Leedon Green","address":"26 Leedon Heights","latitude":1.313566141,"longitude":103.803218,"price":3700000,"size":1496,"year_of_built":0},{"id":212,"properties_name":"My Manhattan","address":"29 Simei Street 3","latitude":1.341519499,"longitude":103.953758,"price":1220000,"size":936,"year_of_built":2014},{"id":213,"properties_name":"Parc Komo","address":"963 Upper Changi Road North","latitude":1.360551137,"longitude":103.9700933,"price":2584000,"size":1808,"year_of_built":0},{"id":214,"properties_name":"View at Kismis","address":"15 Lorong Kismis","latitude":1.338284892,"longitude":103.7702135,"price":2068000,"size":1270,"year_of_built":0},{"id":215,"properties_name":"Stirling Residences","address":"21 Stirling Road","latitude":1.292054817,"longitude":103.8055464,"price":3255000,"size":1970,"year_of_built":0},{"id":216,"properties_name":"Changi Court","address":"704 Upper Changi Road East","latitude":1.343759826,"longitude":103.9625143,"price":1200000,"size":969,"year_of_built":1997},{"id":217,"properties_name":"Three 11","address":"311 Upper Thomson Road","latitude":1.356654471,"longitude":103.8287367,"price":1550000,"size":732,"year_of_built":2016},{"id":218,"properties_name":"Commonwealth Towers","address":"230 Commonwealth Avenue","latitude":1.295734335,"longitude":103.8060302,"price":1380000,"size":689,"year_of_built":2017},{"id":219,"properties_name":"Edelweiss Park Condominium","address":"82 Flora Road","latitude":1.356986145,"longitude":103.9675732,"price":1900000,"size":2465,"year_of_built":2006},{"id":220,"properties_name":"Leedon Green","address":"26 Leedon Heights","latitude":1.313566141,"longitude":103.803218,"price":2680000,"size":1044,"year_of_built":0},{"id":221,"properties_name":"Edelweiss Park Condominium","address":"86 Flora Road","latitude":1.356815774,"longitude":103.9683716,"price":950000,"size":1055,"year_of_built":2006},{"id":222,"properties_name":"JadeScape","address":"12 Shunfu Road","latitude":1.352274454,"longitude":103.8386549,"price":2767410,"size":1647,"year_of_built":0},{"id":223,"properties_name":"Ferraria Park Condominium","address":"12 Flora Drive","latitude":1.357293652,"longitude":103.9642253,"price":1000000,"size":1023,"year_of_built":2010},{"id":224,"properties_name":"Edelweiss Park Condominium","address":"80 Flora Road","latitude":1.35711314,"longitude":103.9671584,"price":820000,"size":947,"year_of_built":2006},{"id":225,"properties_name":"Edelweiss Park Condominium","address":"90 Flora Road","latitude":1.356319771,"longitude":103.9686555,"price":1700000,"size":1625,"year_of_built":2006},{"id":226,"properties_name":"Robin Suites","address":"25 Robin Road","latitude":1.317691725,"longitude":103.8287695,"price":1220000,"size":463,"year_of_built":2016},{"id":227,"properties_name":"86 Dawson Road","address":"86 Dawson Road","latitude":1.295649031,"longitude":103.8102305,"price":898800,"size":893,"year_of_built":2015},{"id":228,"properties_name":"70C Telok Blangah Heights","address":"70C Telok Blangah Heights","latitude":1.275996185,"longitude":103.810863,"price":838000,"size":1002,"year_of_built":2016},{"id":229,"properties_name":"Parc Imperial","address":"253C Pasir Panjang Road","latitude":1.281594625,"longitude":103.7831773,"price":720000,"size":387,"year_of_built":2010},{"id":230,"properties_name":"312C Clementi Avenue 4","address":"312C Clementi Avenue 4","latitude":1.319522679,"longitude":103.7640251,"price":880000,"size":1001,"year_of_built":2016},{"id":231,"properties_name":"Concourse Skyline","address":"296 Beach Road","latitude":1.300703934,"longitude":103.8618611,"price":4629385,"size":2207,"year_of_built":2014},{"id":232,"properties_name":"Skies Miltonia","address":"35 Miltonia Close","latitude":1.418350663,"longitude":103.8472745,"price":1150000,"size":1130,"year_of_built":2016},{"id":233,"properties_name":"Concourse Skyline","address":"300 Beach Road","latitude":1.301010924,"longitude":103.8624841,"price":29888000,"size":11129,"year_of_built":2014},{"id":234,"properties_name":"Waterwoods","address":"17 Punggol Field Walk","latitude":1.390662845,"longitude":103.9124512,"price":1128888,"size":1033,"year_of_built":2015},{"id":235,"properties_name":"111 Rivervale Walk","address":"111 Rivervale Walk","latitude":1.384397167,"longitude":103.9008116,"price":505000,"size":1302,"year_of_built":1998},{"id":236,"properties_name":"Astrid Meadows","address":"42 Coronation Road West","latitude":1.318139328,"longitude":103.794876,"price":2730000,"size":1378,"year_of_built":1990},{"id":237,"properties_name":"223 Simei Street 4","address":"223 Simei Street 4","latitude":1.342088992,"longitude":103.9576471,"price":530000,"size":1119,"year_of_built":1987},{"id":238,"properties_name":"The Waterside","address":"The Waterside","latitude":1.297020678,"longitude":103.8835515,"price":3800000,"size":2142,"year_of_built":1993},{"id":239,"properties_name":"RIVERBANK @ FERNVALE","address":"15 Fernvale Close","latitude":1.395000849,"longitude":103.8815648,"price":1260000,"size":1055,"year_of_built":2017},{"id":240,"properties_name":"Riversails","address":"24 Upper Serangoon Crescent","latitude":1.378465006,"longitude":103.9025225,"price":670000,"size":645,"year_of_built":2016},{"id":241,"properties_name":"The Oliv","address":"11C Balmoral Road","latitude":1.314836293,"longitude":103.8315785,"price":10000000,"size":3337,"year_of_built":2013},{"id":242,"properties_name":"One Pearl Bank","address":"1 Pearl Bank","latitude":1.282961487,"longitude":103.8398146,"price":1087000,"size":431,"year_of_built":0},{"id":243,"properties_name":"Mon Jervois","address":"39 Jervois Road","latitude":1.293516216,"longitude":103.8222354,"price":1350000,"size":624,"year_of_built":2016},{"id":244,"properties_name":"Sea Esta","address":"18 Pasir Ris Link","latitude":1.377427793,"longitude":103.9598772,"price":1150000,"size":1119,"year_of_built":2016},{"id":245,"properties_name":"Commonwealth Towers","address":"232 Commonwealth Avenue","latitude":1.295463429,"longitude":103.8065158,"price":1950000,"size":1055,"year_of_built":2017},{"id":246,"properties_name":"Commonwealth Towers","address":"230 Commonwealth Avenue","latitude":1.295734335,"longitude":103.8060302,"price":1499998,"size":797,"year_of_built":2017},{"id":247,"properties_name":"Citylights","address":"80 Jellicoe Road","latitude":1.308275812,"longitude":103.8631174,"price":3870000,"size":3218,"year_of_built":2007},{"id":248,"properties_name":"70B Telok Blangah Heights","address":"70B Telok Blangah Heights","latitude":1.276749457,"longitude":103.8105415,"price":790000,"size":1001,"year_of_built":2016},{"id":249,"properties_name":"The Teneriffe","address":"110 Laurel Wood Avenue","latitude":1.326765416,"longitude":103.7902147,"price":2950000,"size":3100,"year_of_built":2004},{"id":250,"properties_name":"93 Dawson Road","address":"93 Dawson Road","latitude":1.29499227,"longitude":103.8117965,"price":838000,"size":893,"year_of_built":2015},{"id":251,"properties_name":"The Light @ Cairnhill","address":"19 Cairnhill Circle","latitude":1.306448329,"longitude":103.8384131,"price":3680000,"size":1690,"year_of_built":2004},{"id":252,"properties_name":"The Madeira","address":"50 Bukit Batok Street 31","latitude":1.357813478,"longitude":103.7495143,"price":1050000,"size":1270,"year_of_built":2003},{"id":253,"properties_name":"FloraView","address":"5 Ang Mo Kio Street 66","latitude":1.391514648,"longitude":103.8507334,"price":950000,"size":699,"year_of_built":2018},{"id":254,"properties_name":"The Poiz Residences","address":"2 Meyappa Chettiar Road","latitude":1.332027297,"longitude":103.8686595,"price":798000,"size":420,"year_of_built":2018},{"id":255,"properties_name":"The Parc Condominium","address":"1 West Coast Walk","latitude":1.309606016,"longitude":103.7609543,"price":2300000,"size":1421,"year_of_built":2011},{"id":256,"properties_name":"Duchess Residences","address":"102 Duchess Avenue","latitude":1.324524112,"longitude":103.8015204,"price":3280000,"size":1604,"year_of_built":2011},{"id":257,"properties_name":"60 Strathmore Avenue","address":"60 Strathmore Avenue","latitude":1.293085872,"longitude":103.8118849,"price":800000,"size":1032,"year_of_built":1998},{"id":258,"properties_name":"The Clement Canopy","address":"18 Clementi Avenue 1","latitude":1.306676248,"longitude":103.7685369,"price":2100000,"size":1345,"year_of_built":2019},{"id":259,"properties_name":"The Nautical","address":"97 Jalan Sendudok","latitude":1.442817008,"longitude":103.8247377,"price":1648000,"size":1819,"year_of_built":2016},{"id":260,"properties_name":"Tropika East","address":"3 Foo Kim Lin Road","latitude":1.328865892,"longitude":103.907194,"price":1200000,"size":840,"year_of_built":2016},{"id":261,"properties_name":"Costa Rhu","address":"5 Rhu Cross","latitude":1.296479019,"longitude":103.8664189,"price":1299000,"size":1012,"year_of_built":1998},{"id":262,"properties_name":"Parc Vista","address":"456 Corporation Road","latitude":1.343956138,"longitude":103.7173104,"price":890000,"size":1044,"year_of_built":2000},{"id":263,"properties_name":"Bayshore Park","address":"60 Bayshore Road","latitude":1.311343489,"longitude":103.935244,"price":745000,"size":624,"year_of_built":1986},{"id":264,"properties_name":"Signature Park","address":"50 Toh Tuck Road","latitude":1.342388697,"longitude":103.7683759,"price":1950000,"size":1421,"year_of_built":1998},{"id":265,"properties_name":"The Jovell","address":"19 Flora Drive","latitude":1.357880813,"longitude":103.9665448,"price":1075500,"size":904,"year_of_built":0},{"id":266,"properties_name":"Sant Ritz","address":"1 Pheng Geck Avenue","latitude":1.329644103,"longitude":103.8692331,"price":1480000,"size":958,"year_of_built":2016},{"id":267,"properties_name":"Reflections at Keppel Bay","address":"19 Keppel Bay View","latitude":1.266032303,"longitude":103.8101948,"price":2650000,"size":1647,"year_of_built":2013},{"id":268,"properties_name":"THE VENUE RESIDENCES","address":"14 Tai Thong Crescent","latitude":1.328525106,"longitude":103.8693233,"price":1300000,"size":850,"year_of_built":2017},{"id":269,"properties_name":"Siglap Rare & Multi-Generation Detached! Wide frontage!","address":"Siglap Valley","latitude":1.319492708,"longitude":103.9434426,"price":15000000,"size":9000,"year_of_built":0},{"id":270,"properties_name":"116C Rivervale Drive","address":"116C Rivervale Drive","latitude":1.3821551,"longitude":103.9028522,"price":510000,"size":1227,"year_of_built":1998},{"id":271,"properties_name":"405 Hougang Avenue 10","address":"405 Hougang Avenue 10","latitude":1.374049696,"longitude":103.8964593,"price":450000,"size":979,"year_of_built":1984},{"id":272,"properties_name":"143 Rivervale Drive","address":"143 Rivervale Drive","latitude":1.390065934,"longitude":103.9057234,"price":780000,"size":1507,"year_of_built":1998},{"id":273,"properties_name":"30 New Upper Changi Road","address":"30 New Upper Changi Road","latitude":1.323526782,"longitude":103.9364239,"price":338000,"size":700,"year_of_built":1976},{"id":274,"properties_name":"632 Choa Chu Kang North 6","address":"632 Choa Chu Kang North 6","latitude":1.396691112,"longitude":103.7485797,"price":660000,"size":1367,"year_of_built":1996},{"id":275,"properties_name":"273A Bishan Street 24","address":"273A Bishan Street 24","latitude":1.356366211,"longitude":103.843934,"price":1380000,"size":1291,"year_of_built":2011},{"id":276,"properties_name":"Twin Vew","address":"91 West Coast Vale","latitude":1.320049382,"longitude":103.7521613,"price":1100000,"size":732,"year_of_built":0},{"id":277,"properties_name":"Parc Rosewood","address":"83 Rosewood Drive","latitude":1.427929392,"longitude":103.7854383,"price":1090000,"size":1270,"year_of_built":2014},{"id":278,"properties_name":"70C Telok Blangah Heights","address":"70C Telok Blangah Heights","latitude":1.275996185,"longitude":103.810863,"price":950000,"size":1001,"year_of_built":2016},{"id":279,"properties_name":"Aquarius By The Park","address":"5 Bedok Reservoir View","latitude":1.338392138,"longitude":103.9350655,"price":1600000,"size":1324,"year_of_built":2000},{"id":280,"properties_name":"Duchess Residences","address":"106 Duchess Avenue","latitude":1.324363388,"longitude":103.8009303,"price":3300000,"size":1485,"year_of_built":2011},{"id":281,"properties_name":"Lake Life","address":"12 Tao Ching Road","latitude":1.331791512,"longitude":103.7242031,"price":838000,"size":742,"year_of_built":2017},{"id":282,"properties_name":"De Lente","address":"Holland Road","latitude":1.309929957,"longitude":103.8055784,"price":1300000,"size":742,"year_of_built":0},{"id":283,"properties_name":"The Clement Canopy","address":"18 Clementi Avenue 1","latitude":1.306676248,"longitude":103.7685369,"price":2100000,"size":1345,"year_of_built":2019},{"id":284,"properties_name":"467A Fernvale Link","address":"467A Fernvale Link","latitude":1.39798359,"longitude":103.878459,"price":450000,"size":1001,"year_of_built":2015},{"id":285,"properties_name":"???Ground Floor Freehold Bukit Timah","address":"Eng Kong Crescent","latitude":1.335503377,"longitude":103.7692891,"price":1280000,"size":840,"year_of_built":1999},{"id":286,"properties_name":"217C Sumang Walk","address":"217C Sumang Walk","latitude":1.40235851,"longitude":103.8954941,"price":520000,"size":990,"year_of_built":2016},{"id":287,"properties_name":"1953","address":"1 Tessensohn Road","latitude":1.316477524,"longitude":103.8577508,"price":2190000,"size":1130,"year_of_built":0},{"id":288,"properties_name":"Sea Horizon","address":"Pasir Ris Drive 3","latitude":1.375139282,"longitude":103.9534842,"price":770000,"size":775,"year_of_built":2017},{"id":289,"properties_name":"Sant Ritz","address":"1 Pheng Geck Avenue","latitude":1.329644103,"longitude":103.8692331,"price":1350000,"size":1259,"year_of_built":2016},{"id":290,"properties_name":"The Creek @ Bukit","address":"19 Toh Tuck Road","latitude":1.339021377,"longitude":103.7695234,"price":2539950,"size":1722,"year_of_built":2017},{"id":291,"properties_name":"Seahill","address":"119 West Coast Crescent","latitude":1.298656689,"longitude":103.7641136,"price":995000,"size":667,"year_of_built":2019},{"id":292,"properties_name":"Principal Garden","address":"93 Prince Charles Crescent","latitude":1.292547476,"longitude":103.8210826,"price":1500000,"size":807,"year_of_built":2019},{"id":293,"properties_name":"Grosvenor View","address":"1 Lengkong Empat","latitude":1.327302817,"longitude":103.9113593,"price":1180000,"size":1054,"year_of_built":2005},{"id":294,"properties_name":"La Mariposa","address":"35 Mangis Road","latitude":1.312707634,"longitude":103.9046712,"price":1920000,"size":1130,"year_of_built":0},{"id":295,"properties_name":"The Topiary","address":"13 Fernvale Lane","latitude":1.388815679,"longitude":103.8723919,"price":965888,"size":915,"year_of_built":2016},{"id":296,"properties_name":"184 Stirling Road","address":"184 Stirling Road","latitude":1.295609547,"longitude":103.8044729,"price":765000,"size":1230,"year_of_built":1999},{"id":297,"properties_name":"14 1 2 LiveTour","address":"Holland Heights","latitude":1.30792538,"longitude":103.8032518,"price":9999999,"size":4000,"year_of_built":1980},{"id":298,"properties_name":"5 4 LiveTour","address":"Coral Park","latitude":1.353736881,"longitude":103.8423807,"price":4700000,"size":2200,"year_of_built":1981},{"id":299,"properties_name":"Kingsford Waterbay","address":"70 Upper Serangoon View","latitude":1.374093242,"longitude":103.9032599,"price":1680000,"size":1098,"year_of_built":2018},{"id":300,"properties_name":"Frankel Estate - Siglap road","address":"Siglap Road","latitude":1.320253536,"longitude":103.9205129,"price":5500000,"size":4937,"year_of_built":0},{"id":301,"properties_name":"Skies Miltonia","address":"3 Miltonia Close","latitude":1.418061323,"longitude":103.8478483,"price":3360000,"size":3574,"year_of_built":2016},{"id":302,"properties_name":"Pasir Panjang Road - Freehold Corner House, Land Status","address":"Pasir Panjang Road","latitude":1.284837234,"longitude":103.7809248,"price":4800000,"size":3907,"year_of_built":0},{"id":303,"properties_name":"Binjai Park","address":"Binjai Park","latitude":1.340420102,"longitude":103.7874746,"price":35200000,"size":15000,"year_of_built":0},{"id":304,"properties_name":"Mimosa Villas","address":"Mimosa Walk","latitude":1.383083336,"longitude":103.8614509,"price":5856000,"size":4000,"year_of_built":1987},{"id":305,"properties_name":"The Canopy","address":"85 Yishun Avenue 11","latitude":1.423855115,"longitude":103.8484205,"price":890000,"size":1023,"year_of_built":2014},{"id":306,"properties_name":"Rangoon Apts","address":"208C Rangoon Rd","latitude":1.317656813,"longitude":103.8529193,"price":1950000,"size":1453,"year_of_built":1997},{"id":307,"properties_name":"21 Teban Gardens Road","address":"21 Teban Gardens Road","latitude":1.323680649,"longitude":103.7391562,"price":487000,"size":936,"year_of_built":2012},{"id":308,"properties_name":"315B Punggol Way","address":"315B Punggol Way","latitude":1.407956027,"longitude":103.8964008,"price":500000,"size":1001,"year_of_built":2016},{"id":309,"properties_name":"D10 FH Semi-D @ Lim Tai See 2382 \/ 2800 ft2","address":"Lim Tai See Walk","latitude":1.322673374,"longitude":103.7922707,"price":5888888,"size":2800,"year_of_built":0},{"id":310,"properties_name":"Brand New Bungalow for sale","address":"Jalan kakatua","latitude":1.345375514,"longitude":103.765305,"price":23800000,"size":15500,"year_of_built":0},{"id":311,"properties_name":"Palms @ Sixth Avenue","address":"251 Sixth Avenue singapore","latitude":1.323866976,"longitude":103.7926854,"price":5900000,"size":4952,"year_of_built":0},{"id":312,"properties_name":"CITYSCAPE @FARRER PARK","address":"101 Mergui Road","latitude":1.318021994,"longitude":103.8515937,"price":1620000,"size":1120,"year_of_built":2015},{"id":313,"properties_name":"Spottiswoode Residences","address":"48 Spottiswoode Park Road","latitude":1.275271152,"longitude":103.8368322,"price":1290000,"size":603,"year_of_built":2014},{"id":314,"properties_name":"The Crest","address":"101 Prince Charles Crescent","latitude":1.29269479,"longitude":103.8204115,"price":2380000,"size":1023,"year_of_built":2017},{"id":315,"properties_name":"Spottiswoode Residences","address":"48 Spottiswoode Park Road","latitude":1.275271152,"longitude":103.8368322,"price":3290000,"size":1421,"year_of_built":2014},{"id":316,"properties_name":"CHEAPEST, PRICE-TRAILING P. S. F. 10-YR NEW SEMI-DETACHED BIGGER AND CHEAPER THAN OTHERS IN D19","address":"72A Tampines Road","latitude":1.360735368,"longitude":103.8894236,"price":4700000,"size":4700,"year_of_built":2010},{"id":317,"properties_name":"Waterfall Gardens","address":"8 Farrer Road","latitude":1.312256215,"longitude":103.8045272,"price":8600000,"size":4845,"year_of_built":2010},{"id":318,"properties_name":"511B Yishun Street 51","address":"511B Yishun Street 51","latitude":1.415600145,"longitude":103.8424141,"price":560000,"size":1216,"year_of_built":2016},{"id":319,"properties_name":"Affinity At Serangoon","address":"Serangoon North Avenue 1","latitude":1.369950992,"longitude":103.8723123,"price":1288000,"size":861,"year_of_built":0},{"id":320,"properties_name":"Miltonia Residences","address":"520 Miltonia Close","latitude":1.417507345,"longitude":103.8476594,"price":918000,"size":1001,"year_of_built":2015},{"id":321,"properties_name":"8M Residences","address":"8 Margate Road","latitude":1.299289489,"longitude":103.8886935,"price":1850000,"size":893,"year_of_built":2017},{"id":322,"properties_name":"Village @ Pasir Panjang","address":"463 Pasir Panjang Road","latitude":1.290870742,"longitude":103.7700666,"price":2150000,"size":1539,"year_of_built":2016},{"id":323,"properties_name":"113C Mcnair Road","address":"113C Mcnair Road","latitude":1.320882353,"longitude":103.8603317,"price":680000,"size":732,"year_of_built":2016},{"id":324,"properties_name":"Trilive","address":"115 Tampines Road","latitude":1.36227689,"longitude":103.8913291,"price":1520000,"size":904,"year_of_built":2018},{"id":325,"properties_name":"20 Jalan Membina","address":"20 Jalan Membina","latitude":1.285624598,"longitude":103.8259233,"price":1080000,"size":1184,"year_of_built":2001},{"id":326,"properties_name":"Foresque Residences","address":"107 Petir Road","latitude":1.369266828,"longitude":103.7768239,"price":1388888,"size":1130,"year_of_built":2015},{"id":327,"properties_name":"Waterfront Isle","address":"738 Bedok Reservoir Road","latitude":1.337520379,"longitude":103.9278209,"price":850000,"size":667,"year_of_built":2015},{"id":328,"properties_name":"The Florida","address":"72 Hougang Avenue 7","latitude":1.373558503,"longitude":103.9000372,"price":935000,"size":1227,"year_of_built":2000},{"id":329,"properties_name":"453B Fernvale Road","address":"453B Fernvale Road","latitude":1.394298886,"longitude":103.8751108,"price":490000,"size":990,"year_of_built":2014},{"id":330,"properties_name":"64 Telok Blangah Drive","address":"64 Telok Blangah Drive","latitude":1.274506393,"longitude":103.8105355,"price":395000,"size":721,"year_of_built":1978},{"id":331,"properties_name":"Bayshore Park","address":"50 Bayshore Road","latitude":1.312149584,"longitude":103.9374683,"price":788000,"size":743,"year_of_built":1986},{"id":332,"properties_name":"One-North Residences","address":"9 One-North Gateway","latitude":1.301733345,"longitude":103.7900009,"price":1438000,"size":958,"year_of_built":2009},{"id":333,"properties_name":"Commonwealth Towers","address":"232 Commonwealth Avenue","latitude":1.295463429,"longitude":103.8065158,"price":1380000,"size":700,"year_of_built":2017},{"id":334,"properties_name":"Leedon Green","address":"38 Leedon Heights","latitude":1.312868828,"longitude":103.802964,"price":1999800,"size":818,"year_of_built":0},{"id":335,"properties_name":"Heritage View","address":"10 Dover Rise","latitude":1.304416722,"longitude":103.7842786,"price":1300000,"size":969,"year_of_built":2000},{"id":336,"properties_name":"238 Bishan Street 22","address":"238 Bishan Street 22","latitude":1.359760803,"longitude":103.8446426,"price":1280000,"size":1539,"year_of_built":1990},{"id":337,"properties_name":"475D Upper Serangoon Crescent","address":"475D Upper Serangoon Crescent","latitude":1.375182544,"longitude":103.900406,"price":600000,"size":990,"year_of_built":2014},{"id":338,"properties_name":"E MAISON","address":"28 Braddell Road","latitude":1.343282867,"longitude":103.8692173,"price":1365000,"size":936,"year_of_built":2016},{"id":339,"properties_name":"The Wisteria","address":"596 Yishun Ring Road","latitude":1.417949712,"longitude":103.8415114,"price":790000,"size":635,"year_of_built":2018},{"id":340,"properties_name":"Hundred Trees","address":"85 West Coast Drive","latitude":1.315072366,"longitude":103.758518,"price":750000,"size":484,"year_of_built":2013},{"id":341,"properties_name":"Robin Residences","address":"3 Robin Drive","latitude":1.318783631,"longitude":103.8282067,"price":1100000,"size":409,"year_of_built":2016},{"id":342,"properties_name":"Whistler Grand","address":"109 West Coast Vale","latitude":1.319611649,"longitude":103.7543309,"price":1932960,"size":1442,"year_of_built":0},{"id":343,"properties_name":"DUO Residences","address":"1 Fraser Street","latitude":1.29916296,"longitude":103.8578595,"price":2201950,"size":936,"year_of_built":2017},{"id":344,"properties_name":"DUO Residences","address":"1 Fraser Street","latitude":1.29916296,"longitude":103.8578595,"price":1922300,"size":818,"year_of_built":2017},{"id":345,"properties_name":"Parbury Hill Condominium","address":"38 Parbury Avenue","latitude":1.317904653,"longitude":103.9430251,"price":1500000,"size":1055,"year_of_built":1998},{"id":346,"properties_name":"Commonwealth Towers","address":"230 Commonwealth Avenue","latitude":1.295734335,"longitude":103.8060302,"price":950000,"size":484,"year_of_built":2017},{"id":347,"properties_name":"De Centurion","address":"6A Tanjong Rhu Road","latitude":1.29881006,"longitude":103.8843503,"price":875000,"size":571,"year_of_built":2010},{"id":348,"properties_name":"10 1 LiveTour","address":"Wolskel Road","latitude":1.346928079,"longitude":103.8682718,"price":6300000,"size":6300,"year_of_built":0},{"id":349,"properties_name":"665A Punggol Drive","address":"665A Punggol Drive","latitude":1.402127691,"longitude":103.9135785,"price":678000,"size":1216,"year_of_built":2015},{"id":350,"properties_name":"Fernhill Cottage","address":"Fernhill Road","latitude":1.312816831,"longitude":103.8233971,"price":4999000,"size":2766,"year_of_built":2000},{"id":351,"properties_name":"361 Yishun Ring Road","address":"361 Yishun Ring Road","latitude":1.428324759,"longitude":103.8459083,"price":728000,"size":1700,"year_of_built":1987},{"id":352,"properties_name":"Meyer Mansion","address":"79 Meyer Road","latitude":1.296472195,"longitude":103.8910346,"price":1323960,"size":484,"year_of_built":0},{"id":353,"properties_name":"Forestville","address":"24 Woodlands Drive 16","latitude":1.431796581,"longitude":103.7993908,"price":960000,"size":1065,"year_of_built":2016},{"id":354,"properties_name":"185D Rivervale Crescent","address":"185D Rivervale Crescent","latitude":1.393866998,"longitude":103.9063512,"price":408000,"size":947,"year_of_built":1999},{"id":355,"properties_name":"Holland Heights Estate","address":"21 Holland Park","latitude":1.309942195,"longitude":103.8049563,"price":9800000,"size":4000,"year_of_built":1999},{"id":356,"properties_name":"Piermont Grand","address":"22 Sumang Walk","latitude":1.40985036,"longitude":103.897464,"price":1421280,"size":1356,"year_of_built":0},{"id":357,"properties_name":"Piermont Grand","address":"22 Sumang Walk","latitude":1.40985036,"longitude":103.897464,"price":902340,"size":840,"year_of_built":0},{"id":358,"properties_name":"40 Sims Drive","address":"40 Sims Drive","latitude":1.31747603,"longitude":103.8763541,"price":530000,"size":1173,"year_of_built":1989},{"id":359,"properties_name":"633A Punggol Drive","address":"633A Punggol Drive","latitude":1.401369675,"longitude":103.9131916,"price":460000,"size":965,"year_of_built":2006},{"id":360,"properties_name":"The Woodleigh Residences","address":"13 Bidadari Park Drive","latitude":1.338214403,"longitude":103.87209,"price":2880000,"size":1475,"year_of_built":0},{"id":361,"properties_name":"50 Commonwealth Drive","address":"50 Commonwealth Drive","latitude":1.301129092,"longitude":103.797123,"price":880000,"size":1033,"year_of_built":2013},{"id":362,"properties_name":"86 Dawson Road","address":"86 Dawson Road","latitude":1.295649031,"longitude":103.8102305,"price":880000,"size":894,"year_of_built":2015},{"id":363,"properties_name":"View at Kismis","address":"15 Lorong Kismis","latitude":1.338284892,"longitude":103.7702135,"price":1440000,"size":893,"year_of_built":0},{"id":364,"properties_name":"Kambangan Semi Detached House for sale","address":"Lengkong Dua","latitude":1.325435837,"longitude":103.9121096,"price":5100000,"size":4000,"year_of_built":0},{"id":365,"properties_name":"Daisy Suites","address":"35 Daisy Road Singapore","latitude":1.343848762,"longitude":103.8684281,"price":1000000,"size":797,"year_of_built":2015},{"id":366,"properties_name":"Roots @ Transit","address":"9 Transit Road","latitude":1.404878055,"longitude":103.8180882,"price":1662000,"size":1326,"year_of_built":2019},{"id":367,"properties_name":"Roots @ Transit","address":"9 Transit Road","latitude":1.404878055,"longitude":103.8180882,"price":809000,"size":667,"year_of_built":2019},{"id":368,"properties_name":"Roots @ Transit","address":"9 Transit Road","latitude":1.404878055,"longitude":103.8180882,"price":768000,"size":583,"year_of_built":2019},{"id":369,"properties_name":"Spacious Corner Terrace landed","address":"Jalan Intan","latitude":1.359702844,"longitude":103.7616028,"price":4300000,"size":3100,"year_of_built":0},{"id":370,"properties_name":"477B Upper Serangoon View","address":"477B Upper Serangoon View","latitude":1.378812052,"longitude":103.9042296,"price":570000,"size":990,"year_of_built":2015},{"id":371,"properties_name":"Siglap Plain","address":"Siglap Plain","latitude":1.317760309,"longitude":103.9169211,"price":10000000,"size":6006,"year_of_built":2010},{"id":372,"properties_name":"Normanton Park","address":"45 Normanton Park","latitude":1.287349679,"longitude":103.7930563,"price":799000,"size":527,"year_of_built":0},{"id":373,"properties_name":"D'Leedon","address":"7 Leedon Heights","latitude":1.314421655,"longitude":103.803913,"price":2100000,"size":1216,"year_of_built":2014},{"id":374,"properties_name":"20 Teck Whye Lane","address":"20 Teck Whye Lane","latitude":1.378754548,"longitude":103.7531634,"price":399000,"size":979,"year_of_built":1980},{"id":375,"properties_name":"Clavon","address":"4 Clementi Avenue 1","latitude":1.308912438,"longitude":103.7670551,"price":1940000,"size":1281,"year_of_built":0},{"id":376,"properties_name":"Whistler Grand","address":"109 West Coast Vale","latitude":1.319611649,"longitude":103.7543309,"price":1890000,"size":1442,"year_of_built":0},{"id":377,"properties_name":"Southbank","address":"881 North Bridge Road","latitude":1.306311852,"longitude":103.8643085,"price":1999999,"size":904,"year_of_built":2009},{"id":378,"properties_name":"Citylights","address":"90 Jellicoe Road","latitude":1.308995553,"longitude":103.8626596,"price":1450000,"size":893,"year_of_built":2007},{"id":379,"properties_name":"Hilltops","address":"99 Cairnhill Circle","latitude":1.307333225,"longitude":103.8384806,"price":2582400,"size":807,"year_of_built":2011},{"id":380,"properties_name":"Parc Haven","address":"12 Lorong Limau","latitude":1.324368361,"longitude":103.8542195,"price":1280000,"size":1044,"year_of_built":2005},{"id":381,"properties_name":"Riversails","address":"18 Upper Serangoon Crescent","latitude":1.379244429,"longitude":103.9023832,"price":940000,"size":882,"year_of_built":2016},{"id":382,"properties_name":"Jalan Pari Burong","address":"Jalan Pari Burong","latitude":1.333826283,"longitude":103.9469417,"price":5150000,"size":5134,"year_of_built":2012},{"id":383,"properties_name":"Hilltops","address":"101 Cairnhill Circle","latitude":1.307261755,"longitude":103.8385363,"price":4272000,"size":1335,"year_of_built":2011},{"id":384,"properties_name":"Hilltops","address":"99 Cairnhill Circle","latitude":1.307333225,"longitude":103.8384806,"price":4031772,"size":1249,"year_of_built":2011},{"id":385,"properties_name":"Parc Canberra","address":"1 Canberra Walk","latitude":1.447470592,"longitude":103.829031,"price":997000,"size":926,"year_of_built":0},{"id":386,"properties_name":"425 Choa Chu Kang Avenue 4","address":"425 Choa Chu Kang Avenue 4","latitude":1.38121893,"longitude":103.7394824,"price":510000,"size":1313,"year_of_built":1990},{"id":387,"properties_name":"The Crest","address":"101 Prince Charles Crescent","latitude":1.29269479,"longitude":103.8204115,"price":2880000,"size":1184,"year_of_built":2017},{"id":388,"properties_name":"Semi D in Simei with beautiful Garden","address":"Jalan Segam","latitude":1.347111615,"longitude":103.9602153,"price":4300000,"size":3000,"year_of_built":0},{"id":389,"properties_name":"475D Upper Serangoon Crescent","address":"475D Upper Serangoon Crescent","latitude":1.375182544,"longitude":103.900406,"price":780000,"size":1206,"year_of_built":2014},{"id":390,"properties_name":"Heritage View","address":"10 Dover Rise","latitude":1.304416722,"longitude":103.7842786,"price":1200000,"size":969,"year_of_built":2000},{"id":391,"properties_name":"Duchess Residences","address":"108 Duchess Avenue","latitude":1.323905023,"longitude":103.8009594,"price":5000000,"size":2759,"year_of_built":2011},{"id":392,"properties_name":"101 Spottiswoode Park Road","address":"101 Spottiswoode Park Road","latitude":1.275241413,"longitude":103.8360458,"price":950000,"size":850,"year_of_built":1973},{"id":393,"properties_name":"Chwee Chian View","address":"Chwee Chian View","latitude":1.279578948,"longitude":103.7881171,"price":5700000,"size":4500,"year_of_built":1991},{"id":394,"properties_name":"Riversails","address":"2 Upper Serangoon Crescent","latitude":1.378119953,"longitude":103.9022963,"price":898000,"size":882,"year_of_built":2016},{"id":395,"properties_name":"6 Holland Close","address":"6 Holland Close","latitude":1.307115686,"longitude":103.7952646,"price":400000,"size":699,"year_of_built":1973},{"id":396,"properties_name":"Parc Botannia","address":"18 Fernvale Street","latitude":1.397993196,"longitude":103.8752698,"price":668000,"size":431,"year_of_built":0},{"id":397,"properties_name":"Loft @ Stevens","address":"68 Stevens Road","latitude":1.317839472,"longitude":103.8262237,"price":968000,"size":518,"year_of_built":2015},{"id":398,"properties_name":"Hedges Park Condominium","address":"89 Flora Drive","latitude":1.354107306,"longitude":103.96775,"price":999000,"size":1000,"year_of_built":2015},{"id":399,"properties_name":"221 Bishan Street 23","address":"221 Bishan Street 23","latitude":1.357841205,"longitude":103.8489404,"price":738000,"size":1237,"year_of_built":1990},{"id":400,"properties_name":"Grandeur Park Residences","address":"1 Bedok South Avenue 3","latitude":1.325821355,"longitude":103.9449192,"price":950000,"size":549,"year_of_built":0},{"id":401,"properties_name":"Kingsford Waterbay","address":"76 Upper Serangoon View","latitude":1.375038314,"longitude":103.9039101,"price":658000,"size":484,"year_of_built":2018},{"id":402,"properties_name":"Kingsford Waterbay","address":"76 Upper Serangoon View","latitude":1.375038314,"longitude":103.9039101,"price":848888,"size":657,"year_of_built":2018},{"id":403,"properties_name":"Cashew Green 999 years Leasehold next to Nature Reserve","address":"Cashew Road","latitude":1.372414413,"longitude":103.767994,"price":6330005,"size":5866,"year_of_built":0},{"id":404,"properties_name":"Park Green","address":"10 Rivervale Link","latitude":1.381076607,"longitude":103.8998447,"price":1200000,"size":1389,"year_of_built":2005},{"id":405,"properties_name":"Coronation Road","address":"Coronation Road","latitude":1.323107605,"longitude":103.8101371,"price":8400000,"size":3400,"year_of_built":2015},{"id":406,"properties_name":"Normanton Park","address":"45 Normanton Park","latitude":1.287349679,"longitude":103.7930563,"price":899000,"size":517,"year_of_built":0},{"id":407,"properties_name":"348 Clementi Avenue 5","address":"348 Clementi Avenue 5","latitude":1.316777163,"longitude":103.7708971,"price":550000,"size":990,"year_of_built":1978},{"id":408,"properties_name":"Ferraria Park Condominium","address":"24 Flora Drive","latitude":1.35797801,"longitude":103.963676,"price":1058000,"size":1023,"year_of_built":2010},{"id":409,"properties_name":"Orchard Scotts","address":"7 Anthony Road","latitude":1.309660253,"longitude":103.8384453,"price":3490000,"size":2174,"year_of_built":2007},{"id":410,"properties_name":"183 Edgefield Plains","address":"183 Edgefield Plains","latitude":1.398810031,"longitude":103.9098456,"price":500000,"size":1177,"year_of_built":2002},{"id":411,"properties_name":"30 Jalan Klinik","address":"30 Jalan Klinik","latitude":1.287669769,"longitude":103.8282029,"price":345000,"size":624,"year_of_built":1963},{"id":412,"properties_name":"Symphony Suites","address":"3 Yishun Close","latitude":1.434768994,"longitude":103.844173,"price":840000,"size":689,"year_of_built":0},{"id":413,"properties_name":"The Tropica","address":"61 Tampines Avenue 1","latitude":1.347633796,"longitude":103.9268807,"price":1300000,"size":1314,"year_of_built":2001},{"id":414,"properties_name":"130 Edgedale Plains","address":"130 Edgedale Plains","latitude":1.393172994,"longitude":103.9100553,"price":430000,"size":979,"year_of_built":2002},{"id":415,"properties_name":"445 Tampines Street 42","address":"445 Tampines Street 42","latitude":1.358302422,"longitude":103.9506584,"price":448000,"size":958,"year_of_built":1984},{"id":416,"properties_name":"Provence Residence","address":"23 Canberra Crescent","latitude":1.447784713,"longitude":103.8274513,"price":890000,"size":883,"year_of_built":0},{"id":417,"properties_name":"Grandeur Park Residences","address":"3 Bedok South Avenue 3","latitude":1.326092355,"longitude":103.9452697,"price":800000,"size":420,"year_of_built":0},{"id":418,"properties_name":"Kingsford Waterbay","address":"74 Upper Serangoon View","latitude":1.374720657,"longitude":103.9037317,"price":842000,"size":678,"year_of_built":2018},{"id":419,"properties_name":"Ventura Heights","address":"71G Jalan Lim Tai See","latitude":1.32105395,"longitude":103.7918595,"price":4280000,"size":4661,"year_of_built":2011},{"id":420,"properties_name":"Land 9800sqft with 3-Storey &Basement","address":"Margate Road","latitude":1.299011972,"longitude":103.8888824,"price":18000000,"size":8500,"year_of_built":0},{"id":421,"properties_name":"Dalvey Haus","address":"101 Dalvey Road Singapore","latitude":1.316262714,"longitude":103.8251896,"price":7520000,"size":2164,"year_of_built":0},{"id":422,"properties_name":"NEWest","address":"3 West Coast Drive","latitude":1.316413219,"longitude":103.7574513,"price":2350000,"size":2863,"year_of_built":2017},{"id":423,"properties_name":"Riversails","address":"24 Upper Serangoon Crescent","latitude":1.378465006,"longitude":103.9025225,"price":918000,"size":882,"year_of_built":2016},{"id":424,"properties_name":"Hundred Trees","address":"85 West Coast Drive","latitude":1.315072366,"longitude":103.758518,"price":2300000,"size":1475,"year_of_built":2013},{"id":425,"properties_name":"The Clement Canopy","address":"18 Clementi Avenue 1","latitude":1.306676248,"longitude":103.7685369,"price":1888888,"size":1109,"year_of_built":2019},{"id":426,"properties_name":"Juluca","address":"382B Pasir Panjang Road","latitude":1.291542553,"longitude":103.7725493,"price":2499999,"size":3022,"year_of_built":2010},{"id":427,"properties_name":"303B Anchorvale Link","address":"303B Anchorvale Link","latitude":1.387423768,"longitude":103.8898488,"price":480000,"size":947,"year_of_built":1999},{"id":428,"properties_name":"Symphony Suites","address":"3 Yishun Close","latitude":1.434768994,"longitude":103.844173,"price":1250000,"size":1023,"year_of_built":0},{"id":429,"properties_name":"Principal Garden","address":"93 Prince Charles Crescent","latitude":1.292547476,"longitude":103.8210826,"price":899000,"size":485,"year_of_built":2019},{"id":430,"properties_name":"Parc Clematis","address":"2 Jalan Lempeng","latitude":1.317106451,"longitude":103.7589473,"price":4168000,"size":3832,"year_of_built":0},{"id":431,"properties_name":"Sennett Residence","address":"31 Pheng Geck Avenue","latitude":1.33058137,"longitude":103.8693674,"price":925000,"size":581,"year_of_built":2016},{"id":432,"properties_name":"Principal Garden","address":"95 Prince Charles Crescent","latitude":1.292546766,"longitude":103.8216905,"price":1599000,"size":807,"year_of_built":2019},{"id":433,"properties_name":"Ripple Bay","address":"10 Pasir Ris Link","latitude":1.378379954,"longitude":103.960914,"price":1148000,"size":1066,"year_of_built":2016},{"id":434,"properties_name":"Parc Riviera","address":"101 West Coast Vale","latitude":1.320817692,"longitude":103.7526673,"price":930000,"size":603,"year_of_built":0},{"id":435,"properties_name":"Upper Changi Road","address":"Upper Changi Road","latitude":1.332610336,"longitude":103.9464585,"price":3800000,"size":2831,"year_of_built":1985},{"id":436,"properties_name":"Aura 83","address":"83 Duku Road","latitude":1.310967647,"longitude":103.9062667,"price":1110000,"size":775,"year_of_built":2015},{"id":437,"properties_name":"131C Kim Tian Road","address":"131C Kim Tian Road","latitude":1.280312427,"longitude":103.8288223,"price":868000,"size":1184,"year_of_built":2000},{"id":438,"properties_name":"Avenue South Residence","address":"3 Silat Avenue","latitude":1.276280878,"longitude":103.8297954,"price":1375000,"size":657,"year_of_built":0},{"id":439,"properties_name":"Greenbank Park","address":"Greenbank Park","latitude":1.347589492,"longitude":103.7881737,"price":5180000,"size":4234,"year_of_built":1997},{"id":440,"properties_name":"Euhabitat","address":"224 Jalan Eunos","latitude":1.327276853,"longitude":103.9065064,"price":670000,"size":550,"year_of_built":2016},{"id":441,"properties_name":"The Hyde","address":"11 Balmoral Road","latitude":1.314326317,"longitude":103.8310652,"price":2143000,"size":775,"year_of_built":0},{"id":442,"properties_name":"The Lakeshore","address":"31 Jurong West Street 41","latitude":1.345558103,"longitude":103.7226131,"price":1280000,"size":1227,"year_of_built":2007},{"id":443,"properties_name":"The Stellar","address":"6 West Coast Road","latitude":1.293827953,"longitude":103.7682464,"price":1980000,"size":1679,"year_of_built":2008},{"id":444,"properties_name":"Renovated Terrace House at Clover","address":"Clover Close","latitude":1.349227032,"longitude":103.8451388,"price":4600000,"size":3400,"year_of_built":0},{"id":445,"properties_name":"109A Edgedale Plains","address":"109A Edgedale Plains","latitude":1.394721864,"longitude":103.9098738,"price":499000,"size":1184,"year_of_built":2001},{"id":446,"properties_name":"183 Stirling Road","address":"183 Stirling Road","latitude":1.295687406,"longitude":103.8048623,"price":666666,"size":1021,"year_of_built":1999},{"id":447,"properties_name":"88 Dawson Road","address":"88 Dawson Road","latitude":1.29579395,"longitude":103.8092648,"price":858000,"size":936,"year_of_built":2015},{"id":448,"properties_name":"Thomson Three","address":"21 Bright Hill Drive","latitude":1.357215709,"longitude":103.8309706,"price":1330000,"size":883,"year_of_built":2017},{"id":449,"properties_name":"28D Dover Crescent","address":"28D Dover Crescent","latitude":1.306083152,"longitude":103.7824724,"price":910000,"size":1334,"year_of_built":2010},{"id":450,"properties_name":"Midtown Modern","address":"16 Tan Quee Lan Street","latitude":1.298505223,"longitude":103.8570884,"price":1400000,"size":592,"year_of_built":0},{"id":451,"properties_name":"The Woodleigh Residences","address":"13 Bidadari Park Drive","latitude":1.338214403,"longitude":103.87209,"price":1773000,"size":850,"year_of_built":0},{"id":452,"properties_name":"523D Tampines Central 7","address":"523D Tampines Central 7","latitude":1.35935847,"longitude":103.9389088,"price":599999,"size":1001,"year_of_built":2014},{"id":453,"properties_name":"Normanton Park","address":"47 Normanton Park","latitude":1.28646429,"longitude":103.7931825,"price":927000,"size":527,"year_of_built":0},{"id":454,"properties_name":"H20 Residences","address":"34 Fernvale Link","latitude":1.392390119,"longitude":103.8795321,"price":708000,"size":528,"year_of_built":2015},{"id":455,"properties_name":"Flamingo Valley","address":"460 Siglap Road","latitude":1.317801057,"longitude":103.9221073,"price":2150000,"size":1389,"year_of_built":2015},{"id":456,"properties_name":"The Tembusu","address":"107 Tampines Road","latitude":1.361530944,"longitude":103.8894097,"price":1400000,"size":752,"year_of_built":2017},{"id":457,"properties_name":"473A Upper Serangoon Crescent","address":"473A Upper Serangoon Crescent","latitude":1.376825251,"longitude":103.900641,"price":688000,"size":1216,"year_of_built":2016},{"id":458,"properties_name":"Gardenvista","address":"956 Dunearn Road","latitude":1.33863258,"longitude":103.7801638,"price":1200000,"size":893,"year_of_built":2006},{"id":459,"properties_name":"Echelon","address":"7 Alexandra View","latitude":1.29082513,"longitude":103.8183315,"price":2560000,"size":1313,"year_of_built":2016},{"id":460,"properties_name":"19 Jalan Tenteram","address":"19 Jalan Tenteram","latitude":1.327607041,"longitude":103.8598605,"price":550000,"size":969,"year_of_built":1999},{"id":461,"properties_name":"Holland Dream Home","address":"Holland Grove Drive","latitude":1.313712963,"longitude":103.7814118,"price":8280000,"size":7000,"year_of_built":0},{"id":462,"properties_name":"Piermont Grand","address":"22 Sumang Walk","latitude":1.40985036,"longitude":103.897464,"price":899000,"size":840,"year_of_built":0},{"id":463,"properties_name":"Piermont Grand","address":"22 Sumang Walk","latitude":1.40985036,"longitude":103.897464,"price":1380000,"size":1367,"year_of_built":0},{"id":464,"properties_name":"Eastpoint Green","address":"1 Simei Street 3","latitude":1.339545204,"longitude":103.9510221,"price":1080000,"size":1141,"year_of_built":1998},{"id":465,"properties_name":"Grandeur Park Residences","address":"3 Bedok South Avenue 3","latitude":1.326092355,"longitude":103.9452697,"price":1080000,"size":667,"year_of_built":0},{"id":466,"properties_name":"Kingsford Hillview Peak","address":"103 Hillview Rise","latitude":1.3647904,"longitude":103.7641689,"price":738000,"size":549,"year_of_built":2016},{"id":467,"properties_name":"One Pearl Bank","address":"1 Pearl Bank","latitude":1.282961487,"longitude":103.8398146,"price":2509000,"size":1098,"year_of_built":0},{"id":468,"properties_name":"Waterfront Key","address":"772 Bedok Reservoir Road","latitude":1.337509317,"longitude":103.9313904,"price":1180000,"size":915,"year_of_built":2012},{"id":469,"properties_name":"Coastal Breeze Residences","address":"10 Loyang Besar Close","latitude":1.378462531,"longitude":103.9574886,"price":1080000,"size":1173,"year_of_built":2012},{"id":470,"properties_name":"162C Rivervale Crescent","address":"162C Rivervale Crescent","latitude":1.39002955,"longitude":103.9084849,"price":650000,"size":1216,"year_of_built":2015},{"id":471,"properties_name":"Sengkang Grand Residences","address":"72 Compassvale Bow","latitude":1.382127322,"longitude":103.8924896,"price":1505600,"size":936,"year_of_built":0},{"id":472,"properties_name":"Sant Ritz","address":"1 Pheng Geck Avenue","latitude":1.329644103,"longitude":103.8692331,"price":1420000,"size":882,"year_of_built":2016},{"id":473,"properties_name":"Inter-Terrace Near to Upp Thomson & Marymount MRT stations & Thomson Plaza","address":"Jln Minggu","latitude":1.354404979,"longitude":103.8369573,"price":2000000,"size":1850,"year_of_built":0},{"id":474,"properties_name":"One-North Residences","address":"7 One-North Gateway","latitude":1.302204401,"longitude":103.7899075,"price":1580000,"size":1034,"year_of_built":2009},{"id":475,"properties_name":"Skies Miltonia","address":"3 Miltonia Close","latitude":1.418061323,"longitude":103.8478483,"price":1370000,"size":1486,"year_of_built":2016},{"id":476,"properties_name":"Sengkang Grand Residences","address":"72 Compassvale Bow","latitude":1.382127322,"longitude":103.8924896,"price":2235200,"size":1324,"year_of_built":0},{"id":477,"properties_name":"Sengkang Grand Residences","address":"72 Compassvale Bow","latitude":1.382127322,"longitude":103.8924896,"price":1593600,"size":936,"year_of_built":0},{"id":478,"properties_name":"Sengkang Grand Residences","address":"72 Compassvale Bow","latitude":1.382127322,"longitude":103.8924896,"price":1119200,"size":678,"year_of_built":0},{"id":479,"properties_name":"Affinity At Serangoon","address":"Serangoon North Avenue 1","latitude":1.369950992,"longitude":103.8723123,"price":2086000,"size":1410,"year_of_built":0},{"id":480,"properties_name":"Regis Mansions","address":"15 Jalan Rajawali","latitude":1.342950265,"longitude":103.7682454,"price":1500000,"size":1206,"year_of_built":1997},{"id":481,"properties_name":"The Petals","address":"85 Hillview Avenue","latitude":1.353674206,"longitude":103.7605499,"price":1680000,"size":1905,"year_of_built":2002},{"id":482,"properties_name":"Elevated Villa with Pool and Courtyard","address":"Jalan Haji Alias","latitude":1.323023402,"longitude":103.7951862,"price":10800000,"size":6140,"year_of_built":0},{"id":483,"properties_name":"Spacious Corner Terrace near Lor Chuan MRT","address":"Li Hwan Drive","latitude":1.356120569,"longitude":103.863721,"price":4200000,"size":3400,"year_of_built":2007},{"id":484,"properties_name":"Freehold Terrace near Ai Tong & Catholic High (Thomson) for only $2. Xmil!","address":"Jalan Terubok","latitude":1.354502324,"longitude":103.8354,"price":2880000,"size":2000,"year_of_built":0},{"id":485,"properties_name":"Hock Swee Hill","address":"Begonia Terrace","latitude":1.388453939,"longitude":103.8615968,"price":4880000,"size":3500,"year_of_built":0},{"id":486,"properties_name":"Dairy Farm Residences","address":"4 Dairy Farm Lane","latitude":1.365570784,"longitude":103.7750491,"price":980000,"size":624,"year_of_built":0},{"id":487,"properties_name":"TREASURE AT TAMPINES","address":"17 Tampines Lane","latitude":1.344636677,"longitude":103.9488733,"price":1463000,"size":1033,"year_of_built":0},{"id":488,"properties_name":"TREASURE AT TAMPINES","address":"31 Tampines Lane","latitude":1.344620228,"longitude":103.9468204,"price":1631000,"size":1238,"year_of_built":0},{"id":489,"properties_name":"Seletar Garden","address":"Cactus Road","latitude":1.39014657,"longitude":103.8521869,"price":3650000,"size":3400,"year_of_built":0},{"id":490,"properties_name":"Roots @ Transit","address":"9 Transit Road","latitude":1.404878055,"longitude":103.8180882,"price":642000,"size":445,"year_of_built":2019},{"id":491,"properties_name":"613D Punggol Drive","address":"613D Punggol Drive","latitude":1.403824351,"longitude":103.9089093,"price":550000,"size":1000,"year_of_built":2011},{"id":492,"properties_name":"Palm Haven","address":"18 Palm Grove Avenue","latitude":1.360563297,"longitude":103.8777119,"price":1268000,"size":1087,"year_of_built":2003},{"id":493,"properties_name":"DUO Residences","address":"1 Fraser Street","latitude":1.29916296,"longitude":103.8578595,"price":1990000,"size":936,"year_of_built":2017},{"id":494,"properties_name":"Euphony Gardens","address":"5 Jalan Mata Ayer","latitude":1.424621475,"longitude":103.8248991,"price":875000,"size":1184,"year_of_built":2002},{"id":495,"properties_name":"12 1 LiveTour","address":"Binjai Park","latitude":1.340420102,"longitude":103.7874746,"price":9500000,"size":6556,"year_of_built":0},{"id":496,"properties_name":"Grandeur Park Residences","address":"Grandeur Park Residences","latitude":1.325585733,"longitude":103.9452027,"price":1568888,"size":969,"year_of_built":0},{"id":497,"properties_name":"Kingsford Hillview Peak","address":"105 Hillview Rise","latitude":1.364843897,"longitude":103.7637276,"price":1160000,"size":786,"year_of_built":2016},{"id":498,"properties_name":"THE ESTUARY","address":"85 Yishun Avenue 1","latitude":1.411173384,"longitude":103.8317378,"price":970000,"size":1034,"year_of_built":2013},{"id":499,"properties_name":"Eco Sanctuary","address":"65 Chestnut Avenue","latitude":1.370845691,"longitude":103.775719,"price":1060000,"size":753,"year_of_built":2016},{"id":500,"properties_name":"Echelon","address":"5 Alexandra View","latitude":1.290963991,"longitude":103.8179899,"price":1600000,"size":732,"year_of_built":2016},{"id":501,"properties_name":"Mon Jervois","address":"41 Jervois Road","latitude":1.293652271,"longitude":103.8219972,"price":3788800,"size":2368,"year_of_built":2016},{"id":502,"properties_name":"The Belvedere","address":"51 Meyer Road","latitude":1.297048648,"longitude":103.8876448,"price":2590000,"size":1313,"year_of_built":2008},{"id":503,"properties_name":"Robin Suites","address":"25 Robin Road","latitude":1.317691725,"longitude":103.8287695,"price":1298000,"size":495,"year_of_built":2016},{"id":504,"properties_name":"Waterfront Isle","address":"738 Bedok Reservoir Road","latitude":1.337520379,"longitude":103.9278209,"price":1500000,"size":1216,"year_of_built":2015},{"id":505,"properties_name":"New Freehold Inter-Terrace in a Convenient Location","address":"MacPherson garden estate","latitude":1.333388106,"longitude":103.8797074,"price":2500000,"size":2000,"year_of_built":0},{"id":506,"properties_name":"431A Yishun Avenue 1","address":"431A Yishun Avenue 1","latitude":1.419608341,"longitude":103.8473251,"price":545000,"size":1205,"year_of_built":2014},{"id":507,"properties_name":"Thomson Three","address":"41 Bright Hill Drive","latitude":1.357807845,"longitude":103.8302741,"price":1785000,"size":1044,"year_of_built":2017},{"id":508,"properties_name":"Lakeville","address":"11 Jurong Lake Link","latitude":1.345362278,"longitude":103.7253739,"price":1710000,"size":1163,"year_of_built":2018},{"id":509,"properties_name":"The Poiz Residences","address":"12 Meyappa Chettiar Road","latitude":1.33154468,"longitude":103.8669965,"price":769000,"size":420,"year_of_built":2018},{"id":510,"properties_name":"Seventy St Patrick's","address":"70 Saint Patrick's Road","latitude":1.308385841,"longitude":103.9152694,"price":1380000,"size":732,"year_of_built":2017},{"id":511,"properties_name":"Provence Residence","address":"23 Canberra Crescent","latitude":1.447784713,"longitude":103.8274513,"price":895000,"size":883,"year_of_built":0},{"id":512,"properties_name":"Rio Vista","address":"32 Upper Serangoon View","latitude":1.373564031,"longitude":103.9016925,"price":979999,"size":1238,"year_of_built":2004},{"id":513,"properties_name":"20 Marine Terrace","address":"20 Marine Terrace","latitude":1.303715887,"longitude":103.915067,"price":418000,"size":700,"year_of_built":1974},{"id":514,"properties_name":"Stars of Kovan","address":"980 Upper Serangoon Road","latitude":1.361252263,"longitude":103.887231,"price":1300000,"size":743,"year_of_built":0},{"id":515,"properties_name":"Ripple Bay","address":"2 Pasir Ris Link","latitude":1.377279878,"longitude":103.9609951,"price":750000,"size":764,"year_of_built":2016},{"id":516,"properties_name":"Waterwoods","address":"Punggol Field Walk","latitude":1.392967715,"longitude":103.911962,"price":1120000,"size":1044,"year_of_built":2015},{"id":517,"properties_name":"120B Edgedale Plains","address":"120B Edgedale Plains","latitude":1.394837781,"longitude":103.9075847,"price":480000,"size":1001,"year_of_built":2016},{"id":518,"properties_name":"The Jovell","address":"13 Flora Drive","latitude":1.358004544,"longitude":103.9657254,"price":1080000,"size":904,"year_of_built":0},{"id":519,"properties_name":"Grange Residences","address":"247 Tanglin Road","latitude":1.303297673,"longitude":103.8104117,"price":7200000,"size":2583,"year_of_built":2004},{"id":520,"properties_name":"The Tropica","address":"57 Tampines Avenue 1","latitude":1.347299561,"longitude":103.9274583,"price":860000,"size":991,"year_of_built":2001},{"id":521,"properties_name":"Vida","address":"5 Peck Hay Road","latitude":1.308685515,"longitude":103.8390814,"price":1850000,"size":850,"year_of_built":2009},{"id":522,"properties_name":"168C Simei Lane","address":"168C Simei Lane","latitude":1.342477099,"longitude":103.9585391,"price":750000,"size":1151,"year_of_built":2011},{"id":523,"properties_name":"186 Boon Lay Avenue","address":"186 Boon Lay Avenue","latitude":1.345727283,"longitude":103.7110274,"price":255000,"size":635,"year_of_built":1975},{"id":524,"properties_name":"103C Edgefield Plains","address":"103C Edgefield Plains","latitude":1.397266608,"longitude":103.9045384,"price":488000,"size":1184,"year_of_built":2001},{"id":525,"properties_name":"D'Nest","address":"147 Pasir Ris Grove","latitude":1.369112537,"longitude":103.9451434,"price":1488000,"size":1270,"year_of_built":2017},{"id":526,"properties_name":"Clavon","address":"4 Clementi Avenue 1","latitude":1.308912438,"longitude":103.7670551,"price":1918000,"size":1281,"year_of_built":0},{"id":527,"properties_name":"Kent Ridge Hill Residences","address":"South Buona Vista Road Singapore","latitude":1.280475882,"longitude":103.7863417,"price":2761000,"size":1830,"year_of_built":0},{"id":528,"properties_name":"Whistler Grand","address":"107 West Coast Vale","latitude":1.320031287,"longitude":103.7540103,"price":1855000,"size":1442,"year_of_built":0},{"id":529,"properties_name":"Kent Ridge Hill Residences","address":"South Buona Vista Road Singapore","latitude":1.280475882,"longitude":103.7863417,"price":1308000,"size":797,"year_of_built":0},{"id":530,"properties_name":"Clavon","address":"4 Clementi Avenue 1","latitude":1.308912438,"longitude":103.7670551,"price":1598000,"size":958,"year_of_built":0},{"id":531,"properties_name":"THE EDEN AT TAMPINES","address":"27 Tampines St 34","latitude":1.355069795,"longitude":103.9604046,"price":1135000,"size":1238,"year_of_built":2003},{"id":532,"properties_name":"Urban Vista","address":"20 Tanah Merah Kechil Link","latitude":1.327578746,"longitude":103.944195,"price":920000,"size":560,"year_of_built":2016},{"id":533,"properties_name":"FLO Residence","address":"1 Punggol Field Walk","latitude":1.391846751,"longitude":103.913039,"price":1123000,"size":1012,"year_of_built":2016},{"id":534,"properties_name":"D'Nest","address":"135 Pasir Ris Grove","latitude":1.369076336,"longitude":103.9462708,"price":1130000,"size":936,"year_of_built":2017},{"id":535,"properties_name":"The Poiz Residences","address":"10 Meyappa Chettiar Road","latitude":1.331163262,"longitude":103.8678698,"price":899000,"size":592,"year_of_built":2018},{"id":536,"properties_name":"The Stellar","address":"16 West Coast Road","latitude":1.293495151,"longitude":103.767442,"price":1980000,"size":1679,"year_of_built":2008},{"id":537,"properties_name":"475A Upper Serangoon Crescent","address":"475A Upper Serangoon Crescent","latitude":1.376298403,"longitude":103.9002208,"price":579000,"size":990,"year_of_built":2014},{"id":538,"properties_name":"Kingsford Hillview Peak","address":"105 Hillview Rise","latitude":1.364843897,"longitude":103.7637276,"price":1243000,"size":904,"year_of_built":2016},{"id":539,"properties_name":"Central Green","address":"5 Jalan Membina","latitude":1.285321853,"longitude":103.8286404,"price":2380000,"size":1432,"year_of_built":1995},{"id":540,"properties_name":"Simei Green Condominium","address":"15 Simei Street 4","latitude":1.341113226,"longitude":103.9577958,"price":830000,"size":969,"year_of_built":1999},{"id":541,"properties_name":"Seahill","address":"121 West Coast Crescent","latitude":1.298941499,"longitude":103.7639221,"price":738000,"size":495,"year_of_built":2019},{"id":542,"properties_name":"Ladyhill Park","address":"Fernhill Road","latitude":1.312816831,"longitude":103.8233971,"price":23800000,"size":7337,"year_of_built":1990},{"id":543,"properties_name":"The Jovell","address":"13 Flora Drive","latitude":1.358004544,"longitude":103.9657254,"price":1580000,"size":1270,"year_of_built":0},{"id":544,"properties_name":"The Bayshore","address":"22 Bayshore Road","latitude":1.312420023,"longitude":103.9386285,"price":1900000,"size":1432,"year_of_built":1999},{"id":545,"properties_name":"239 Hougang Street 22","address":"239 Hougang Street 22","latitude":1.355973091,"longitude":103.8904781,"price":750000,"size":1463,"year_of_built":1984},{"id":546,"properties_name":"Margaret Ville","address":"20 Margaret Dr","latitude":1.299517208,"longitude":103.8028069,"price":1900000,"size":915,"year_of_built":0},{"id":547,"properties_name":"289F Bukit Batok Street 25","address":"289F Bukit Batok Street 25","latitude":1.34463617,"longitude":103.7590468,"price":418000,"size":990,"year_of_built":1997},{"id":548,"properties_name":"Parc Komo","address":"967 Upper Changi Road North","latitude":1.361006119,"longitude":103.969182,"price":1473000,"size":969,"year_of_built":0},{"id":549,"properties_name":"8@Woodleigh","address":"2 Woodleigh Close","latitude":1.335917965,"longitude":103.8696887,"price":1580000,"size":1076,"year_of_built":2012},{"id":550,"properties_name":"DUO Residences","address":"1 Fraser Street","latitude":1.29916296,"longitude":103.8578595,"price":3361600,"size":1528,"year_of_built":2017},{"id":551,"properties_name":"403D Fernvale Lane","address":"403D Fernvale Lane","latitude":1.388219384,"longitude":103.8731789,"price":455000,"size":990,"year_of_built":2003},{"id":552,"properties_name":"Waterfront @ Faber","address":"48 Faber Walk","latitude":1.323535195,"longitude":103.7546148,"price":1600000,"size":1076,"year_of_built":2018},{"id":553,"properties_name":"Waterfront @ Faber","address":"48 Faber Walk","latitude":1.323535195,"longitude":103.7546148,"price":1100000,"size":753,"year_of_built":2018},{"id":554,"properties_name":"Twin Fountains","address":"15A Woodlands Avenue 6","latitude":1.431148484,"longitude":103.8002083,"price":960000,"size":1098,"year_of_built":2016},{"id":555,"properties_name":"Margaret Ville","address":"20 Margaret Dr","latitude":1.299517208,"longitude":103.8028069,"price":2000000,"size":969,"year_of_built":0},{"id":556,"properties_name":"Cairnhill Road","address":"Cairnhill Road","latitude":1.305649186,"longitude":103.8374994,"price":10800000,"size":4000,"year_of_built":0},{"id":557,"properties_name":"Flamingo Valley","address":"480 Siglap Road","latitude":1.318302935,"longitude":103.9232154,"price":1950000,"size":1216,"year_of_built":2015},{"id":558,"properties_name":"Vue 8 Residence","address":"Pasir Ris Heights","latitude":1.382377149,"longitude":103.9421749,"price":1250000,"size":1033,"year_of_built":2017},{"id":559,"properties_name":"Gambir Ridge","address":"16 Gambir Walk","latitude":1.34439428,"longitude":103.8754238,"price":900000,"size":592,"year_of_built":2015},{"id":560,"properties_name":"Thomson Three","address":"45 Bright Hill Drive","latitude":1.357414045,"longitude":103.8313634,"price":799000,"size":538,"year_of_built":2017},{"id":561,"properties_name":"28 Telok Blangah Rise","address":"28 Telok Blangah Rise","latitude":1.273947618,"longitude":103.8208669,"price":330000,"size":635,"year_of_built":1975},{"id":562,"properties_name":"Archipelago","address":"Bedok Reservoir Road","latitude":1.337587346,"longitude":103.9219636,"price":1250000,"size":1033,"year_of_built":2015},{"id":563,"properties_name":"88 Dawson Road","address":"88 Dawson Road","latitude":1.29579395,"longitude":103.8092648,"price":799000,"size":893,"year_of_built":2015},{"id":564,"properties_name":"The Belvedere","address":"53 Meyer Road","latitude":1.297410523,"longitude":103.8875109,"price":2380000,"size":1206,"year_of_built":2008},{"id":565,"properties_name":"Euhabitat","address":"200 Jalan Eunos","latitude":1.327900125,"longitude":103.9076637,"price":720000,"size":538,"year_of_built":2016},{"id":566,"properties_name":"4 Queen's Road","address":"4 Queen's Road","latitude":1.318832253,"longitude":103.808062,"price":420000,"size":786,"year_of_built":1973},{"id":567,"properties_name":"Mon Jervois","address":"39 Jervois Road","latitude":1.293516216,"longitude":103.8222354,"price":3022500,"size":2325,"year_of_built":2016},{"id":568,"properties_name":"The Belvedere","address":"51 Meyer Road","latitude":1.297048648,"longitude":103.8876448,"price":2600000,"size":1367,"year_of_built":2008},{"id":569,"properties_name":"eCO","address":"215 Bedok South Avenue 3","latitude":1.323800487,"longitude":103.9453598,"price":800000,"size":581,"year_of_built":2017},{"id":570,"properties_name":"Parc Riviera","address":"103 West Coast Vale","latitude":1.320614301,"longitude":103.7532909,"price":915000,"size":603,"year_of_built":0},{"id":571,"properties_name":"Queensway Tower","address":"1 Queensway","latitude":1.287617926,"longitude":103.8033911,"price":1250000,"size":980,"year_of_built":1976},{"id":572,"properties_name":"48 Strathmore Avenue","address":"48 Strathmore Avenue","latitude":1.293802603,"longitude":103.8077892,"price":900000,"size":1183,"year_of_built":2005},{"id":573,"properties_name":"City Gate","address":"371 Beach Road","latitude":1.302347543,"longitude":103.86226,"price":1280000,"size":560,"year_of_built":2019},{"id":574,"properties_name":"67 Telok Blangah Drive","address":"67 Telok Blangah Drive","latitude":1.274636589,"longitude":103.8096328,"price":610000,"size":1270,"year_of_built":1977},